b'$GPRMC,203011.20,A,4006.8278899,N,08142.2902652,W,0.05,108.41,120317,0.0,E,D*27\r\n$GPGGA,203011.20,4006.8278899,N,08142.2902652,W,4,14,1.0,361.704,M,-34.312,M,0.2,*74\r\n$GPGSA,A,3,07,08,09,16,23,26,27,46,48,51,,,2.1,0.9,1.9,1*26\r\n$GLGSA,A,3,67,68,69,77,78,87,88,,,,,,2.7,1.0,2.5,2*33\r\n$GPGSV,3,1,10,07,26,297,47,08,30,176,47,09,48,298,46,16,60,041,49,1*6E\r\n$GPGSV,3,2,10,23,66,226,49,26,32,054,37,27,54,133,51,46,41,204,00,1*6E\r\n$GPGSV,3,3,10,48,20,242,00,51,36,216,00,,,,,,,,,1*6B\r\n$GLGSV,2,1,07,67,22,211,43,68,4'
b'1,273,45,69,18,328,38,77,48,045,44,1*7D\r\n$GLGSV,2,2,07,78,46,310,39,87,40,086,39,88,24,142,45,,,,,1*45\r\n'
b'$GPRMC,203011.40,A,4006.8278899,N,08142.2902651,W,0.10,108.41,120317,0.0,E,D*26\r\n$GPGGA,203011.40,4006.8278899,N,08142.2902651,W,4,14,1.0,361.703,M,-34.312,M,0.4,*70\r\n'
b'$GPGSA,A,3,07,08,09,16,23,26,27,46,48,51,,,2.1,0.9,1.9,1*26\r\n$GLGSA,A,3,67,68,69,77,78,87,88,,,,,,2.7,1.0,2.5,2*33\r\n$GPGSV,3,1,10,07,26,297,46,08,30,176,47,09,48,298,46,16,60,041,49,1*6F\r\n$GPGSV,3,2,10,23,66,226,49,26,32,054,37,27,54,133,51,46,41,204,00,1*6E\r\n$GPGSV,3,3,10,48,20,242,00,51,36,216,00,,,,,,,,,1*6B\r\n$GLGSV,2,1,07,67,22,211,43,68,41,273,45,69,18,328,38,77,48,045,44,1*7D\r\n$GLGSV,2,2,07,78,46,310,39,87,40,086,39,88,24,142,45,,,,,1*45\r\n'
b'$GPRMC,203011.60,A,4006.8278900,N,08142.2902647,W,0.07,108.41,120317,0.0,E,D*24\r\n$GPGGA,203011.60,4006.8278900,N,08142.2902647,W,4,14,1.0,361.702,M,-34.312,M,0.6,*77\r\n$GPGSA,A,3,07,08,09,16,23,26,27,46,48,51,,,2.1,0.9,1.9,1*26\r\n$GLGSA,A,3,67,68,69,77,78,87,88,,,,,,2.7,1.0,2.5,2*33\r\n$GPGSV,3,1,10,07,26,297,46,08,30,176,47,09,48,298,46,16,60,041,49,1*6F\r\n$GPGSV,3,2,10,23,66,226,49,26,32,054,37,27,54,133,51,46,41,204,00,1*6E\r\n$GPGSV,3,3,10,48,20,242,00,51,36,216,00,,,,,,,,,1*6B\r\n$GLGSV,2,1,07,67,22,211,43,68,4'
b'1,273,45,69,18,328,38,77,48,045,44,1*7D\r\n$GLGSV,2,2,07,78,46,310,39,87,40,086,40,88,24,142,45,,,,,1*4B\r\n'
b'$GPRMC,203011.80,A,4006.8278890,N,08142.2902648,W,0.05,108.41,120317,0.0,E,D*2F\r\n$GPGGA,203011.80,4006.8278890,N,08142.2902648,W,4,14,1.0,361.702,M,-34.312,M,0.8,*70\r\n$GPGSA,A,3,07,08,09,16,23,26,27,46,48,51,,,2.1,0.9,1.9,1*26\r\n$GLGSA,A,3,67,68,69,77,78,87,88,,,,,,2.7,1.0,2.5,2*33\r\n$GPGSV,3,1,10,07,26,297,46,08,30,176,47,09,48,298,46,16,60,041,49,1*6F\r\n$GPGSV,3,2,10,23,66,226,49,26,32,054,37,27,54,133,51,46,41,204,00,1*6E\r\n$GPGSV,3,3,10,48,20,242,00,51,36,216,00,,,,,,,,,1*6B\r\n$GLGSV,2,1,07,67,22,211,43,68,4'
b'1,273,45,69,18,327,38,77,48,045,44,1*72\r\n$GLGSV,2,2,07,78,46,310,39,87,40,086,40,88,24,142,45,,,,,1*4B\r\n'
b'$GPRMC,203012.00,A,4006.8278893,N,08142.2902639,W,0.09,108.41,120317,0.0,E,D*2D\r\n$GPGGA,203012.00,4006.8278893,N,08142.2902639,W,4,14,1.0,361.701,M,-34.312,M,1.0,*74\r\n$GPGSA,A,3,07,08,09,16,23,26,27,46,48,51,,,2.1,0.9,1.9,1*26\r\n$GLGSA,A,3,67,68,69,77,78,87,88,,,,,,2.7,1.0,2.5,2*33\r\n$GPGSV,3,1,10,07,26,297,46,08,31,176,47,09,48,298,46,16,60,041,49,1*6E\r\n$GPGSV,3,2,10,23,66,226,49,26,32,054,37,27,54,133,51,46,41,204,00,1*6E\r\n$GPGSV,3,3,10,48,20,242,00,51,36,216,00,,,,,,,,,1*6B\r\n$GLGSV,2,1,07,67,22,211,43,68,4'
b'1,273,45,69,18,327,38,77,48,045,44,1*72\r\n$GLGSV,2,2,07,78,46,310,39,87,40,086,40,88,24,142,45,,,,,1*4B\r\n'
b'$GPRMC,203012.20,A,4006.8278914,N,08142.2902637,W,0.15,108.41,120317,0.0,E,D*22\r\n$GPGGA,203012.20,4006.8278914,N,08142.2902637,W,4,14,1.0,361.701,M,-34.312,M,0.2,*75\r\n'
b'$GPGSA,A,3,07,08,09,16,23,26,27,46,48,51,,,2.1,0.9,1.9,1*26\r\n$GLGSA,A,3,67,68,69,77,78,87,88,,,,,,2.7,1.0,2.5,2*33\r\n$GPGSV,3,1,10,07,26,297,46,08,31,176,47,09,48,298,46,16,60,041,49,1*6E\r\n$GPGSV,3,2,10,23,66,226,49,26,32,054,37,27,54,133,51,46,41,204,00,1*6E\r\n$GPGSV,3,3,10,48,20,242,00,51,36,216,00,,,,,,,,,1*6B\r\n$GLGSV,2,1,07,67,22,211,43,68,41,273,45,69,18,327,38,77,48,045,44,1*72\r\n$GLGSV,2,2,07,78,46,310,39,87,40,086,40,88,24,142,45,,,,,1*4B\r\n'
b'$GPRMC,203012.40,A,4006.8278908,N,08142.2902637,W,0.08,108.41,120317,0.0,E,D*25\r\n$GPGGA,203012.40,4006.8278908,N,08142.2902637,W,4,14,1.0,361.703,M,-34.312,M,0.4,*7A\r\n'
b'$GPGSA,A,3,07,08,09,16,23,26,27,46,48,51,,,2.1,0.9,1.9,1*26\r\n$GLGSA,A,3,67,68,69,77,78,87,88,,,,,,2.7,1.0,2.5,2*33\r\n$GPGSV,3,1,10,07,26,297,46,08,31,176,47,09,48,298,46,16,60,041,49,1*6E\r\n$GPGSV,3,2,10,23,66,226,49,26,32,054,37,27,54,133,51,46,41,204,00,1*6E\r\n$GPGSV,3,3,10,48,20,242,00,51,36,216,00,,,,,,,,,1*6B\r\n$GLGSV,2,1,07,67,22,211,43,68,41,273,45,69,18,327,38,77,48,045,44,1*72\r\n$GLGSV,2,2,07,78,46,310,39,87,40,086,40,88,24,142,45,,,,,1*4B\r\n'
b'$GPRMC,203012.60,A,4006.8278902,N,08142.2902644,W,0.04,108.41,120317,0.0,E,D*25\r\n$GPGGA,203012.60,4006.8278902,N,08142.2902644,W,4,14,1.0,361.707,M,-34.312,M,0.6,*70\r\n'
b'$GPGSA,A,3,07,08,09,16,23,26,27,46,48,51,,,2.1,0.9,1.9,1*26\r\n$GLGSA,A,3,67,68,69,77,78,87,88,,,,,,2.7,1.0,2.5,2*33\r\n$GPGSV,3,1,10,07,26,297,46,08,31,176,47,09,48,298,46,16,60,041,49,1*6E\r\n$GPGSV,3,2,10,23,66,226,49,26,32,054,37,27,54,133,51,46,41,204,00,1*6E\r\n$GPGSV,3,3,10,48,20,242,00,51,36,216,00,,,,,,,,,1*6B\r\n$GLGSV,2,1,07,67,22,211,43,68,41,273,45,69,18,327,38,77,48,045,44,1*72\r\n$GLGSV,2,2,07,78,46,310,39,87,40,086,40,88,24,142,45,,,,,1*4B\r\n'
b'$GPRMC,203012.80,A,4006.8278905,N,08142.2902638,W,0.11,108.41,120317,0.0,E,D*23\r\n$GPGGA,203012.80,4006.8278905,N,08142.2902638,W,4,14,1.0,361.703,M,-34.312,M,0.8,*78\r\n'
b'$GPGSA,A,3,07,08,09,16,23,26,27,46,48,51,,,2.1,0.9,1.9,1*26\r\n$GLGSA,A,3,67,68,69,77,78,87,88,,,,,,2.7,1.0,2.5,2*33\r\n$GPGSV,3,1,10,07,26,297,46,08,31,176,47,09,48,298,46,16,60,041,49,1*6E\r\n$GPGSV,3,2,10,23,66,226,49,26,32,054,37,27,54,133,51,46,41,204,00,1*6E\r\n$GPGSV,3,3,10,48,20,242,00,51,36,216,00,,,,,,,,,1*6B\r\n$GLGSV,2,1,07,67,22,211,43,68,41,273,45,69,18,327,38,77,48,045,44,1*72\r\n$GLGSV,2,2,07,78,46,310,39,87,40,086,40,88,24,142,45,,,,,1*4B\r\n'
b'$GPRMC,203013.00,A,4006.8278908,N,08142.2902644,W,0.10,108.41,120317,0.0,E,D*2D\r\n$GPGGA,203013.00,4006.8278908,N,08142.2902644,W,4,14,1.0,361.704,M,-34.312,M,1.0,*79\r\n'
b'$GPGSA,A,3,07,08,09,16,23,26,27,46,48,51,,,2.1,0.9,1.9,1*26\r\n$GLGSA,A,3,67,68,69,77,78,87,88,,,,,,2.7,1.0,2.5,2*33\r\n$GPGSV,3,1,10,07,26,297,46,08,31,176,47,09,48,298,46,16,60,041,49,1*6E\r\n$GPGSV,3,2,10,23,66,226,49,26,32,054,37,27,54,133,51,46,41,204,00,1*6E\r\n$GPGSV,3,3,10,48,20,242,00,51,36,216,00,,,,,,,,,1*6B\r\n$GLGSV,2,1,07,67,22,211,43,68,41,273,45,69,18,327,38,77,48,045,44,1*72\r\n$GLGSV,2,2,07,78,46,310,39,87,40,086,40,88,24,142,45,,,,,1*4B\r\n'
b'$GPRMC,203013.20,A,4006.8278902,N,08142.2902653,W,0.07,108.41,120317,0.0,E,D*25\r\n$GPGGA,203013.20,4006.8278902,N,08142.2902653,W,4,14,1.0,361.702,M,-34.312,M,0.2,*72\r\n'
b'$GPGSA,A,3,07,08,09,16,23,26,27,46,48,51,,,2.1,0.9,1.9,1*26\r\n$GLGSA,A,3,67,68,69,77,78,87,88,,,,,,2.7,1.0,2.5,2*33\r\n$GPGSV,3,1,10,07,26,297,46,08,31,176,47,09,48,298,46,16,60,041,49,1*6E\r\n$GPGSV,3,2,10,23,66,226,49,26,32,054,37,27,54,133,51,46,41,204,00,1*6E\r\n$GPGSV,3,3,10,48,20,242,00,51,36,216,00,,,,,,,,,1*6B\r\n$GLGSV,2,1,07,67,22,211,43,68,41,273,45,69,18,327,38,77,48,045,44,1*72\r\n$GLGSV,2,2,07,78,46,310,39,87,40,086,40,88,24,142,45,,,,,1*4B\r\n'
b'$GPRMC,203013.40,A,4006.8278909,N,08142.2902642,W,0.04,108.41,120317,0.0,E,D*2B\r\n$GPGGA,203013.40,4006.8278909,N,08142.2902642,W,4,14,1.0,361.698,M,-34.312,M,0.4,*7B\r\n'
b'$GPGSA,A,3,07,08,09,16,23,26,27,46,48,51,,,2.1,0.9,1.9,1*26\r\n$GLGSA,A,3,67,68,69,77,78,87,88,,,,,,2.7,1.0,2.5,2*33\r\n$GPGSV,3,1,10,07,26,297,46,08,31,176,47,09,48,298,46,16,60,041,49,1*6E\r\n$GPGSV,3,2,10,23,66,226,49,26,32,054,37,27,54,133,51,46,41,204,00,1*6E\r\n$GPGSV,3,3,10,48,20,242,00,51,36,216,00,,,,,,,,,1*6B\r\n$GLGSV,2,1,07,67,22,211,43,68,41,273,45,69,18,327,39,77,48,045,44,1*73\r\n$GLGSV,2,2,07,78,46,310,39,87,40,086,40,88,24,142,45,,,,,1*4B\r\n'
b'$GPRMC,203013.60,A,4006.8278900,N,08142.2902649,W,0.04,108.41,120317,0.0,E,D*2B\r\n$GPGGA,203013.60,4006.8278900,N,08142.2902649,W,4,14,1.0,361.701,M,-34.312,M,0.6,*78\r\n'
b'$GPGSA,A,3,07,08,09,16,23,26,27,46,48,51,,,2.1,0.9,1.9,1*26\r\n$GLGSA,A,3,67,68,69,77,78,87,88,,,,,,2.7,1.0,2.5,2*33\r\n$GPGSV,3,1,10,07,26,297,46,08,31,176,47,09,48,298,46,16,60,041,49,1*6E\r\n$GPGSV,3,2,10,23,66,226,50,26,32,054,37,27,54,133,51,46,41,204,00,1*66\r\n$GPGSV,3,3,10,48,20,242,00,51,36,216,00,,,,,,,,,1*6B\r\n$GLGSV,2,1,07,67,22,211,43,68,41,273,45,69,18,327,39,77,48,045,44,1*73\r\n$GLGSV,2,2,07,78,46,310,39,87,40,086,40,88,24,142,45,,,,,1*4B\r\n'
b'$GPRMC,203013.80,A,4006.8278892,N,08142.2902653,W,0.06,108.41,120317,0.0,E,D*26\r\n$GPGGA,203013.80,4006.8278892,N,08142.2902653,W,4,14,1.0,361.703,M,-34.312,M,0.8,*7B\r\n'
b'$GPGSA,A,3,07,08,09,16,23,26,27,46,48,51,,,2.1,0.9,1.9,1*26\r\n$GLGSA,A,3,67,68,69,77,78,87,88,,,,,,2.7,1.0,2.5,2*33\r\n$GPGSV,3,1,10,07,26,297,46,08,31,176,47,09,48,298,46,16,60,041,49,1*6E\r\n$GPGSV,3,2,10,23,66,226,50,26,32,054,37,27,54,133,51,46,41,204,00,1*66\r\n$GPGSV,3,3,10,48,20,242,00,51,36,216,00,,,,,,,,,1*6B\r\n$GLGSV,2,1,07,67,22,211,43,68,41,273,45,69,18,327,39,77,48,045,44,1*73\r\n$GLGSV,2,2,07,78,46,310,39,87,40,086,40,88,24,142,45,,,,,1*4B\r\n'
b'$GPRMC,203014.00,A,4006.8278893,N,08142.2902655,W,0.05,108.41,120317,0.0,E,D*2D\r\n$GPGGA,203014.00,4006.8278893,N,08142.2902655,W,4,14,1.0,361.704,M,-34.312,M,1.0,*7D\r\n'
b'$GPGSA,A,3,07,08,09,16,23,26,27,46,48,51,,,2.1,0.9,1.9,1*26\r\n$GLGSA,A,3,67,68,69,77,78,87,88,,,,,,2.7,1.0,2.5,2*33\r\n$GPGSV,3,1,10,07,26,297,46,08,31,176,47,09,48,298,46,16,60,041,49,1*6E\r\n$GPGSV,3,2,10,23,66,226,50,26,32,054,37,27,54,133,51,46,41,204,00,1*66\r\n$GPGSV,3,3,10,48,20,242,00,51,36,216,00,,,,,,,,,1*6B\r\n$GLGSV,2,1,07,67,22,211,43,68,41,273,45,69,18,327,39,77,48,045,44,1*73\r\n$GLGSV,2,2,07,78,46,310,39,87,40,086,40,88,24,142,45,,,,,1*4B\r\n'
b'$GPRMC,203014.20,A,4006.8278896,N,08142.2902645,W,0.03,108.41,120317,0.0,E,D*2D\r\n$GPGGA,203014.20,4006.8278896,N,08142.2902645,W,4,14,1.0,361.703,M,-34.312,M,0.2,*7F\r\n'
b'$GPGSA,A,3,07,08,09,16,23,26,27,46,48,51,,,2.1,0.9,1.9,1*26\r\n$GLGSA,A,3,67,68,69,77,78,87,88,,,,,,2.7,1.0,2.5,2*33\r\n$GPGSV,3,1,10,07,26,297,46,08,31,176,47,09,48,298,46,16,60,041,49,1*6E\r\n$GPGSV,3,2,10,23,66,226,50,26,32,054,37,27,54,133,51,46,41,204,00,1*66\r\n$GPGSV,3,3,10,48,20,242,00,51,36,216,00,,,,,,,,,1*6B\r\n$GLGSV,2,1,07,67,22,211,43,68,41,273,45,69,18,327,39,77,48,045,44,1*73\r\n$GLGSV,2,2,07,78,46,310,39,87,40,086,40,88,24,142,45,,,,,1*4B\r\n'
b'$GPRMC,203014.40,A,4006.8278889,N,08142.2902641,W,0.08,108.41,120317,0.0,E,D*2A\r\n$GPGGA,203014.40,4006.8278889,N,08142.2902641,W,4,14,1.0,361.701,M,-34.312,M,0.4,*77\r\n$GPGSA,A,3,07,08,09,16,23,26,27,46,48,51,,,2.1,0.9,1.9,1*26\r\n$GLGSA,A,3,67,68,69,77,78,87,88,,,,,,2.7,1.0,2.5,2*33\r\n$GPGSV,3,1,10,07,26,297,46,08,31,176,47,09,48,298,46,16,60,041,49,1*6E\r\n$GPGSV,3,2,10,23,66,226,50,26,32,054,37,27,54,133,51,46,41,204,00,1*66\r\n$GPGSV,3,3,10,48,20,242,00,51,36,216,00,,,,,,,,,1*6B\r\n$GLGSV,2,1,07,67,22,211,43,68,4'
b'1,273,45,69,18,327,39,77,48,045,44,1*73\r\n$GLGSV,2,2,07,78,46,310,39,87,40,086,40,88,24,142,45,,,,,1*4B\r\n'
b'$GPRMC,203014.60,A,4006.8278887,N,08142.2902647,W,0.04,108.41,120317,0.0,E,D*2C\r\n$GPGGA,203014.60,4006.8278887,N,08142.2902647,W,4,14,1.0,361.704,M,-34.312,M,0.6,*7A\r\n'
b'$GPGSA,A,3,07,08,09,16,23,26,27,46,48,51,,,2.1,0.9,1.9,1*26\r\n$GLGSA,A,3,67,68,69,77,78,87,88,,,,,,2.7,1.0,2.5,2*33\r\n$GPGSV,3,1,10,07,26,297,46,08,31,176,47,09,48,298,46,16,60,041,49,1*6E\r\n$GPGSV,3,2,10,23,66,226,50,26,32,054,37,27,54,133,51,46,41,204,00,1*66\r\n$GPGSV,3,3,10,48,20,242,00,51,36,216,00,,,,,,,,,1*6B\r\n$GLGSV,2,1,07,67,22,211,43,68,41,273,45,69,18,327,39,77,48,045,44,1*73\r\n$GLGSV,2,2,07,78,46,310,39,87,40,086,40,88,24,142,45,,,,,1*4B\r\n'
b'$GPRMC,203014.80,A,4006.8278894,N,08142.2902648,W,0.04,108.41,120317,0.0,E,D*2F\r\n$GPGGA,203014.80,4006.8278894,N,08142.2902648,W,4,14,1.0,361.703,M,-34.312,M,0.8,*70\r\n$GPGSA,A,3,07,08,09,16,23,26,27,46,48,51,,,2.1,0.9,1.9,1*26\r\n$GLGSA,A,3,67,68,69,77,78,87,88,,,,,,2.7,1.0,2.5,2*33\r\n$GPGSV,3,1,10,07,26,297,46,08,31,176,47,09,48,298,46,16,60,041,49,1*6E\r\n$GPGSV,3,2,10,23,66,226,50,26,32,054,37,27,54,133,51,46,41,204,00,1*66\r\n$GPGSV,3,3,10,48,20,242,00,51,36,216,00,,,,,,,,,1*6B\r\n$GLGSV,2,1,07,67,22,211,43,68,4'
b'1,273,45,69,18,327,39,77,48,045,44,1*73\r\n$GLGSV,2,2,07,78,46,310,39,87,40,086,40,88,24,142,45,,,,,1*4B\r\n'
b'$GPRMC,203015.00,A,4006.8278891,N,08142.2902644,W,0.04,108.41,120317,0.0,E,D*2F\r\n$GPGGA,203015.00,4006.8278891,N,08142.2902644,W,4,14,1.0,361.701,M,-34.312,M,1.0,*7B\r\n'
b'$GPGSA,A,3,07,08,09,16,23,26,27,46,48,51,,,2.1,0.9,1.9,1*26\r\n$GLGSA,A,3,67,68,69,77,78,87,88,,,,,,2.7,1.0,2.5,2*33\r\n$GPGSV,3,1,10,07,26,297,46,08,31,176,47,09,48,298,46,16,60,041,49,1*6E\r\n$GPGSV,3,2,10,23,66,226,50,26,32,054,37,27,54,133,51,46,41,204,00,1*66\r\n$GPGSV,3,3,10,48,20,242,00,51,36,216,00,,,,,,,,,1*6B\r\n$GLGSV,2,1,07,67,22,211,43,68,41,273,45,69,18,327,39,77,48,045,44,1*73\r\n$GLGSV,2,2,07,78,46,310,39,87,40,086,40,88,24,142,45,,,,,1*4B\r\n'
b'$GPRMC,203015.20,A,4006.8278899,N,08142.2902639,W,0.03,108.41,120317,0.0,E,D*28\r\n$GPGGA,203015.20,4006.8278899,N,08142.2902639,W,4,14,1.0,361.704,M,-34.312,M,0.2,*7D\r\n'
b'$GPGSA,A,3,07,08,09,16,23,26,27,46,48,51,,,2.1,0.9,1.9,1*26\r\n$GLGSA,A,3,67,68,69,77,78,87,88,,,,,,2.7,1.0,2.5,2*33\r\n$GPGSV,3,1,10,07,26,297,46,08,31,176,47,09,48,298,46,16,60,041,49,1*6E\r\n$GPGSV,3,2,10,23,66,226,50,26,32,054,37,27,54,133,51,46,41,204,00,1*66\r\n$GPGSV,3,3,10,48,20,242,00,51,36,216,00,,,,,,,,,1*6B\r\n$GLGSV,2,1,07,67,22,211,43,68,41,273,45,69,18,327,39,77,48,045,44,1*73\r\n$GLGSV,2,2,07,78,46,310,39,87,40,086,41,88,24,142,45,,,,,1*4A\r\n'
b'$GPRMC,203015.40,A,4006.8278896,N,08142.2902639,W,0.08,108.41,120317,0.0,E,D*2A\r\n$GPGGA,203015.40,4006.8278896,N,08142.2902639,W,4,14,1.0,361.705,M,-34.312,M,0.4,*73\r\n'
b'$GPGSA,A,3,07,08,09,16,23,26,27,46,48,51,,,2.1,0.9,1.9,1*26\r\n$GLGSA,A,3,67,68,69,77,78,87,88,,,,,,2.7,1.0,2.5,2*33\r\n$GPGSV,3,1,10,07,26,297,46,08,31,176,47,09,48,298,46,16,60,041,49,1*6E\r\n$GPGSV,3,2,10,23,66,226,50,26,32,054,37,27,54,133,51,46,41,204,00,1*66\r\n$GPGSV,3,3,10,48,20,242,00,51,36,216,00,,,,,,,,,1*6B\r\n$GLGSV,2,1,07,67,22,211,43,68,41,273,45,69,18,327,39,77,48,045,44,1*73\r\n$GLGSV,2,2,07,78,46,310,39,87,40,086,41,88,24,142,45,,,,,1*4A\r\n'
b'$GPRMC,203015.60,A,4006.8278903,N,08142.2902626,W,0.07,108.41,120317,0.0,E,D*24\r\n$GPGGA,203015.60,4006.8278903,N,08142.2902626,W,4,14,1.0,361.700,M,-34.312,M,0.6,*75\r\n'
b'$GPGSA,A,3,07,08,09,16,23,26,27,46,48,51,,,2.1,0.9,1.9,1*26\r\n$GLGSA,A,3,67,68,69,77,78,87,88,,,,,,2.7,1.0,2.5,2*33\r\n$GPGSV,3,1,10,07,26,297,46,08,31,176,47,09,48,298,46,16,60,041,49,1*6E\r\n$GPGSV,3,2,10,23,66,226,50,26,32,054,37,27,54,133,51,46,41,204,00,1*66\r\n$GPGSV,3,3,10,48,20,242,00,51,36,216,00,,,,,,,,,1*6B\r\n$GLGSV,2,1,07,67,22,211,43,68,41,273,45,69,18,327,39,77,48,045,44,1*73\r\n$GLGSV,2,2,07,78,46,310,39,87,40,086,41,88,24,142,45,,,,,1*4A\r\n'
b'$GPRMC,203015.80,A,4006.8278896,N,08142.2902632,W,0.07,108.41,120317,0.0,E,D*22\r\n$GPGGA,203015.80,4006.8278896,N,08142.2902632,W,4,14,1.0,361.701,M,-34.312,M,0.8,*7C\r\n'
b'$GPGSA,A,3,07,08,09,16,23,26,27,46,48,51,,,2.1,0.9,1.9,1*26\r\n$GLGSA,A,3,67,68,69,77,78,87,88,,,,,,2.7,1.0,2.5,2*33\r\n$GPGSV,3,1,10,07,26,297,46,08,31,176,47,09,48,298,46,16,60,041,49,1*6E\r\n$GPGSV,3,2,10,23,66,226,50,26,32,054,37,27,54,133,51,46,41,204,00,1*66\r\n$GPGSV,3,3,10,48,20,242,00,51,36,216,00,,,,,,,,,1*6B\r\n$GLGSV,2,1,07,67,22,211,43,68,41,273,45,69,18,327,39,77,48,045,44,1*73\r\n$GLGSV,2,2,07,78,46,310,39,87,40,086,41,88,24,142,45,,,,,1*4A\r\n'
b'$GPRMC,203016.00,A,4006.8278895,N,08142.2902642,W,0.14,108.41,120317,0.0,E,D*2F\r\n$GPGGA,203016.00,4006.8278895,N,08142.2902642,W,4,14,1.0,361.705,M,-34.312,M,1.0,*7E\r\n'
b'$GPGSA,A,3,07,08,09,16,23,26,27,46,48,51,,,2.1,0.9,1.9,1*26\r\n$GLGSA,A,3,67,68,69,77,78,87,88,,,,,,2.7,1.0,2.5,2*33\r\n$GPGSV,3,1,10,07,26,297,46,08,31,176,47,09,48,298,46,16,60,041,49,1*6E\r\n$GPGSV,3,2,10,23,66,226,50,26,32,054,37,27,54,133,51,46,41,204,00,1*66\r\n$GPGSV,3,3,10,48,20,242,00,51,36,216,00,,,,,,,,,1*6B\r\n$GLGSV,2,1,07,67,22,211,43,68,41,273,45,69,18,327,39,77,48,045,44,1*73\r\n$GLGSV,2,2,07,78,46,310,39,87,40,086,41,88,24,142,45,,,,,1*4A\r\n'
b'$GPRMC,203016.20,A,4006.8278895,N,08142.2902641,W,0.10,108.41,120317,0.0,E,D*2A\r\n$GPGGA,203016.20,4006.8278895,N,08142.2902641,W,4,14,1.0,361.703,M,-34.312,M,0.2,*7A\r\n'
b'$GPGSA,A,3,07,08,09,16,23,26,27,46,48,51,,,2.1,0.9,1.9,1*26\r\n$GLGSA,A,3,67,68,69,77,78,87,88,,,,,,2.7,1.0,2.5,2*33\r\n$GPGSV,3,1,10,07,26,297,46,08,31,176,47,09,48,298,46,16,60,041,49,1*6E\r\n$GPGSV,3,2,10,23,66,226,50,26,32,054,37,27,54,133,51,46,41,204,00,1*66\r\n$GPGSV,3,3,10,48,20,242,00,51,36,216,00,,,,,,,,,1*6B\r\n$GLGSV,2,1,07,67,22,211,43,68,41,273,45,69,18,327,39,77,48,045,44,1*73\r\n$GLGSV,2,2,07,78,46,310,39,87,40,086,41,88,24,142,45,,,,,1*4A\r\n'
b'$GPRMC,203016.40,A,4006.8278901,N,08142.2902634,W,0.06,108.41,120317,0.0,E,D*25\r\n$GPGGA,203016.40,4006.8278901,N,08142.2902634,W,4,14,1.0,361.699,M,-34.312,M,0.4,*76\r\n'
b'$GPGSA,A,3,07,08,09,16,23,26,27,46,48,51,,,2.1,0.9,1.9,1*26\r\n$GLGSA,A,3,67,68,69,77,78,87,88,,,,,,2.7,1.0,2.5,2*33\r\n$GPGSV,3,1,10,07,26,297,46,08,31,176,47,09,48,298,46,16,60,041,49,1*6E\r\n$GPGSV,3,2,10,23,66,226,50,26,32,054,37,27,54,133,51,46,41,204,00,1*66\r\n$GPGSV,3,3,10,48,20,242,00,51,36,216,00,,,,,,,,,1*6B\r\n$GLGSV,2,1,07,67,22,211,43,68,41,273,45,69,18,327,39,77,48,045,44,1*73\r\n$GLGSV,2,2,07,78,46,310,39,87,40,086,41,88,24,142,45,,,,,1*4A\r\n'
b'$GPRMC,203016.60,A,4006.8278906,N,08142.2902630,W,0.14,108.41,120317,0.0,E,D*27\r\n$GPGGA,203016.60,4006.8278906,N,08142.2902630,W,4,14,1.0,361.697,M,-34.312,M,0.6,*7B\r\n'
b'$GPGSA,A,3,07,08,09,16,23,26,27,46,48,51,,,2.1,0.9,1.9,1*26\r\n$GLGSA,A,3,67,68,69,77,78,87,88,,,,,,2.7,1.0,2.5,2*33\r\n$GPGSV,3,1,10,07,26,297,46,08,31,176,47,09,48,298,46,16,60,041,49,1*6E\r\n$GPGSV,3,2,10,23,66,226,50,26,32,054,37,27,54,133,51,46,41,204,00,1*66\r\n$GPGSV,3,3,10,48,20,242,00,51,36,216,00,,,,,,,,,1*6B\r\n$GLGSV,2,1,07,67,22,211,43,68,41,273,45,69,18,327,39,77,48,045,44,1*73\r\n$GLGSV,2,2,07,78,46,310,39,87,40,086,41,88,24,142,45,,,,,1*4A\r\n'
b'$GPRMC,203016.80,A,4006.8278896,N,08142.2902633,W,0.02,108.41,120317,0.0,E,D*25\r\n$GPGGA,203016.80,4006.8278896,N,08142.2902633,W,4,14,1.0,361.699,M,-34.312,M,0.8,*7E\r\n'
b'$GPGSA,A,3,07,08,09,16,23,26,27,46,48,51,,,2.1,0.9,1.9,1*26\r\n$GLGSA,A,3,67,68,69,77,78,87,88,,,,,,2.7,1.0,2.5,2*33\r\n$GPGSV,3,1,10,07,26,297,46,08,31,176,47,09,48,298,46,16,60,041,49,1*6E\r\n$GPGSV,3,2,10,23,66,226,50,26,32,054,37,27,54,133,51,46,41,204,00,1*66\r\n$GPGSV,3,3,10,48,20,242,00,51,36,216,00,,,,,,,,,1*6B\r\n$GLGSV,2,1,07,67,22,211,43,68,41,273,45,69,18,327,39,77,48,045,44,1*73\r\n$GLGSV,2,2,07,78,46,310,39,87,40,086,41,88,24,142,45,,,,,1*4A\r\n'
b'$GPRMC,203017.00,A,4006.8278899,N,08142.2902630,W,0.04,108.41,120317,0.0,E,D*26\r\n$GPGGA,203017.00,4006.8278899,N,08142.2902630,W,4,14,1.0,361.702,M,-34.312,M,1.0,*71\r\n'
b'$GPGSA,A,3,07,08,09,16,23,26,27,46,48,51,,,2.1,0.9,1.9,1*26\r\n$GLGSA,A,3,67,68,69,77,78,87,88,,,,,,2.7,1.0,2.5,2*33\r\n$GPGSV,3,1,10,07,26,297,46,08,31,176,47,09,48,298,46,16,60,041,49,1*6E\r\n$GPGSV,3,2,10,23,66,226,50,26,32,054,37,27,54,133,51,46,41,204,00,1*66\r\n$GPGSV,3,3,10,48,20,242,00,51,36,216,00,,,,,,,,,1*6B\r\n$GLGSV,2,1,07,67,22,211,43,68,41,273,45,69,18,327,39,77,48,045,44,1*73\r\n$GLGSV,2,2,07,78,46,310,39,87,40,086,41,88,24,142,45,,,,,1*4A\r\n'
b'$GPRMC,203017.20,A,4006.8278904,N,08142.2902642,W,0.06,108.41,120317,0.0,E,D*26\r\n$GPGGA,203017.20,4006.8278904,N,08142.2902642,W,4,14,1.0,361.702,M,-34.312,M,0.2,*70\r\n'
b'$GPGSA,A,3,07,08,09,16,23,26,27,46,48,51,,,2.1,0.9,1.9,1*26\r\n$GLGSA,A,3,67,68,69,77,78,87,88,,,,,,2.7,1.0,2.5,2*33\r\n$GPGSV,3,1,10,07,26,297,46,08,31,176,47,09,48,298,46,16,60,041,49,1*6E\r\n$GPGSV,3,2,10,23,66,226,50,26,32,054,37,27,54,133,51,46,41,204,00,1*66\r\n$GPGSV,3,3,10,48,20,242,00,51,36,216,00,,,,,,,,,1*6B\r\n$GLGSV,2,1,07,67,22,211,43,68,41,273,45,69,18,327,39,77,48,045,44,1*73\r\n$GLGSV,2,2,07,78,46,310,39,87,40,086,41,88,24,142,46,,,,,1*49\r\n'
b'$GPRMC,203017.40,A,4006.8278906,N,08142.2902632,W,0.10,108.41,120317,0.0,E,D*22\r\n$GPGGA,203017.40,4006.8278906,N,08142.2902632,W,4,14,1.0,361.699,M,-34.312,M,0.4,*76\r\n$GPGSA,A,3,07,08,09,16,23,26,27,46,48,51,,,2.1,0.9,1.9,1*26\r\n$GLGSA,A,3,67,68,69,77,78,87,88,,,,,,2.7,1.0,2.5,2*33\r\n$GPGSV,3,1,10,07,26,297,46,08,31,176,47,09,48,298,46,16,60,041,49,1*6E\r\n$GPGSV,3,2,10,23,66,226,50,26,32,054,37,27,54,133,50,46,41,204,00,1*67\r\n$GPGSV,3,3,10,48,20,242,00,51,36,216,00,,,,,,,,,1*6B\r\n$GLGSV,2,1,07,67,22,211,43,68,4'
b'1,273,45,69,18,327,40,77,48,045,44,1*7D\r\n$GLGSV,2,2,07,78,46,310,39,87,40,086,41,88,24,142,46,,,,,1*49\r\n'
b'$GPRMC,203017.60,A,4006.8278899,N,08142.2902638,W,0.06,108.41,120317,0.0,E,D*2A\r\n$GPGGA,203017.60,4006.8278899,N,08142.2902638,W,4,14,1.0,361.703,M,-34.312,M,0.6,*79\r\n'
b'$GPGSA,A,3,07,08,09,16,23,26,27,46,48,51,,,2.1,0.9,1.9,1*26\r\n$GLGSA,A,3,67,68,69,77,78,87,88,,,,,,2.7,1.0,2.5,2*33\r\n$GPGSV,3,1,10,07,26,297,46,08,31,176,47,09,48,298,46,16,60,041,49,1*6E\r\n$GPGSV,3,2,10,23,66,226,50,26,32,054,37,27,54,133,50,46,41,204,00,1*67\r\n$GPGSV,3,3,10,48,20,242,00,51,36,216,00,,,,,,,,,1*6B\r\n$GLGSV,2,1,07,67,22,211,43,68,41,273,45,69,18,327,39,77,48,045,44,1*73\r\n$GLGSV,2,2,07,78,46,310,39,87,40,086,41,88,24,142,46,,,,,1*49\r\n'
b'$GPRMC,203017.80,A,4006.8278898,N,08142.2902638,W,0.10,108.41,120317,0.0,E,D*22\r\n$GPGGA,203017.80,4006.8278898,N,08142.2902638,W,4,14,1.0,361.704,M,-34.312,M,0.8,*7F\r\n'
b'$GPGSA,A,3,07,08,09,16,23,26,27,46,48,51,,,2.1,0.9,1.9,1*26\r\n$GLGSA,A,3,67,68,69,77,78,87,88,,,,,,2.7,1.0,2.5,2*33\r\n$GPGSV,3,1,10,07,26,297,46,08,31,176,47,09,48,298,46,16,60,041,49,1*6E\r\n$GPGSV,3,2,10,23,66,226,50,26,32,054,37,27,54,133,50,46,41,204,00,1*67\r\n$GPGSV,3,3,10,48,20,242,00,51,36,216,00,,,,,,,,,1*6B\r\n$GLGSV,2,1,07,67,22,211,43,68,41,273,45,69,18,327,39,77,48,045,44,1*73\r\n$GLGSV,2,2,07,78,46,310,39,87,40,086,41,88,24,142,45,,,,,1*4A\r\n'
b'$GPRMC,203018.00,A,4006.8278907,N,08142.2902630,W,0.09,108.41,120317,0.0,E,D*22\r\n$GPGGA,203018.00,4006.8278907,N,08142.2902630,W,4,14,1.0,361.699,M,-34.312,M,1.0,*7B\r\n'
b'$GPGSA,A,3,07,08,09,16,23,26,27,46,48,51,,,2.1,0.9,1.9,1*26\r\n$GLGSA,A,3,67,68,69,77,78,87,88,,,,,,2.7,1.0,2.5,2*33\r\n$GPGSV,3,1,10,07,26,297,46,08,31,176,47,09,48,298,46,16,60,041,49,1*6E\r\n$GPGSV,3,2,10,23,66,226,50,26,32,054,37,27,54,133,50,46,41,204,00,1*67\r\n$GPGSV,3,3,10,48,20,242,00,51,36,216,00,,,,,,,,,1*6B\r\n$GLGSV,2,1,07,67,22,211,43,68,41,273,45,69,18,327,39,77,48,045,44,1*73\r\n$GLGSV,2,2,07,78,46,310,39,87,40,086,41,88,24,142,45,,,,,1*4A\r\n'
b'$GPRMC,203018.20,A,4006.8278899,N,08142.2902642,W,0.10,108.41,120317,0.0,E,D*2B\r\n$GPGGA,203018.20,4006.8278899,N,08142.2902642,W,4,14,1.0,361.705,M,-34.312,M,0.2,*7D\r\n'
b'$GPGSA,A,3,07,08,09,16,23,26,27,46,48,51,,,2.1,0.9,1.9,1*26\r\n$GLGSA,A,3,67,68,69,77,78,87,88,,,,,,2.7,1.0,2.5,2*33\r\n$GPGSV,3,1,10,07,26,297,46,08,31,176,47,09,48,298,46,16,60,041,49,1*6E\r\n$GPGSV,3,2,10,23,66,226,50,26,32,054,37,27,54,133,50,46,41,204,00,1*67\r\n$GPGSV,3,3,10,48,20,242,00,51,36,216,00,,,,,,,,,1*6B\r\n$GLGSV,2,1,07,67,22,211,43,68,41,273,45,69,18,327,39,77,48,045,44,1*73\r\n$GLGSV,2,2,07,78,46,310,39,87,40,086,41,88,24,142,45,,,,,1*4A\r\n'
b'$GPRMC,203018.40,A,4006.8278903,N,08142.2902637,W,0.08,108.41,120317,0.0,E,D*24\r\n$GPGGA,203018.40,4006.8278903,N,08142.2902637,W,4,14,1.0,361.706,M,-34.312,M,0.4,*7E\r\n'
b'$GPGSA,A,3,07,08,09,16,23,26,27,46,48,51,,,2.1,0.9,1.9,1*26\r\n$GLGSA,A,3,67,68,69,77,78,87,88,,,,,,2.7,1.0,2.5,2*33\r\n$GPGSV,3,1,10,07,26,297,46,08,31,176,47,09,48,298,46,16,60,041,49,1*6E\r\n$GPGSV,3,2,10,23,66,226,50,26,32,054,37,27,54,133,50,46,41,204,00,1*67\r\n$GPGSV,3,3,10,48,20,242,00,51,36,216,00,,,,,,,,,1*6B\r\n$GLGSV,2,1,07,67,22,211,43,68,41,273,45,69,18,327,39,77,48,045,44,1*73\r\n$GLGSV,2,2,07,78,46,310,39,87,40,086,41,88,24,142,45,,,,,1*4A\r\n'
b'$GPRMC,203018.60,A,4006.8278954,N,08142.2902568,W,0.10,108.41,120317,0.0,E,D*24\r\n$GPGGA,203018.60,4006.8278954,N,08142.2902568,W,4,13,1.0,361.678,M,-34.312,M,0.6,*7A\r\n'
b'$GPGSA,A,3,07,08,09,16,23,27,46,48,51,,,,2.8,1.3,2.5,1*2F\r\n$GLGSA,A,3,67,68,69,77,78,87,88,,,,,,2.7,1.0,2.5,2*33\r\n$GPGSV,3,1,09,07,26,297,43,08,31,176,43,09,48,298,42,16,60,041,46,1*6C\r\n$GPGSV,3,2,09,23,66,226,46,27,54,133,47,46,41,204,00,48,20,242,00,1*64\r\n$GPGSV,3,3,09,51,36,216,00,,,,,,,,,,,,,1*59\r\n$GLGSV,2,1,07,67,22,211,43,68,41,273,45,69,18,327,39,77,48,045,44,1*73\r\n$GLGSV,2,2,07,78,46,310,39,87,40,086,41,88,24,142,45,,,,,1*4A\r\n'
b'$GPRMC,203018.80,A,4006.8278953,N,08142.2902559,W,0.09,108.41,120317,0.0,E,D*27\r\n$GPGGA,203018.80,4006.8278953,N,08142.2902559,W,4,13,1.0,361.671,M,-34.312,M,0.8,*76\r\n'
b'$GPGSA,A,3,07,08,09,16,23,27,46,48,51,,,,2.8,1.3,2.5,1*2F\r\n$GLGSA,A,3,67,68,69,77,78,87,88,,,,,,2.7,1.0,2.5,2*33\r\n$GPGSV,3,1,09,07,26,297,42,08,31,176,42,09,48,298,42,16,60,041,45,1*6F\r\n$GPGSV,3,2,09,23,66,226,46,27,54,133,46,46,41,204,00,48,20,242,00,1*65\r\n$GPGSV,3,3,09,51,36,216,00,,,,,,,,,,,,,1*59\r\n$GLGSV,2,1,07,67,22,211,43,68,41,273,45,69,18,327,39,77,48,045,44,1*73\r\n$GLGSV,2,2,07,78,46,310,39,87,40,086,41,88,24,142,45,,,,,1*4A\r\n'
b'$GPRMC,203019.00,A,4006.8278965,N,08142.2902560,W,0.17,108.41,120317,0.0,E,D*2E\r\n$GPGGA,203019.00,4006.8278965,N,08142.2902560,W,4,13,1.0,361.676,M,-34.312,M,1.0,*7E\r\n'
b'$GPGSA,A,3,07,08,09,16,23,27,46,48,51,,,,2.8,1.3,2.5,1*2F\r\n$GLGSA,A,3,67,68,69,77,78,87,88,,,,,,2.7,1.0,2.5,2*33\r\n$GPGSV,3,1,09,07,26,297,42,08,31,176,42,09,48,298,42,16,60,041,44,1*6E\r\n$GPGSV,3,2,09,23,66,226,45,27,54,133,46,46,41,204,00,48,20,242,00,1*66\r\n$GPGSV,3,3,09,51,36,216,00,,,,,,,,,,,,,1*59\r\n$GLGSV,2,1,07,67,22,211,43,68,41,273,45,69,18,327,39,77,48,045,44,1*73\r\n$GLGSV,2,2,07,78,46,310,39,87,40,086,41,88,24,142,45,,,,,1*4A\r\n'
b'$GPRMC,203019.20,A,4006.8278938,N,08142.2902549,W,0.10,108.41,120317,0.0,E,D*28\r\n$GPGGA,203019.20,4006.8278938,N,08142.2902549,W,4,13,1.0,361.670,M,-34.312,M,0.2,*7A\r\n'
b'$GPGSA,A,3,07,08,09,16,23,27,46,48,51,,,,2.8,1.3,2.5,1*2F\r\n$GLGSA,A,3,67,68,69,77,78,87,88,,,,,,2.7,1.0,2.5,2*33\r\n$GPGSV,3,1,09,07,26,297,42,08,31,176,42,09,48,298,42,16,60,041,45,1*6F\r\n$GPGSV,3,2,09,23,66,225,46,27,54,133,46,46,41,204,00,48,20,242,00,1*66\r\n$GPGSV,3,3,09,51,36,216,00,,,,,,,,,,,,,1*59\r\n$GLGSV,2,1,07,67,22,211,43,68,41,273,45,69,18,327,39,77,48,045,44,1*73\r\n$GLGSV,2,2,07,78,46,310,39,87,40,086,41,88,24,142,45,,,,,1*4A\r\n'
b'$GPRMC,203019.40,A,4006.8278939,N,08142.2902558,W,0.06,108.41,120317,0.0,E,D*28\r\n$GPGGA,203019.40,4006.8278939,N,08142.2902558,W,4,13,1.0,361.672,M,-34.312,M,0.4,*79\r\n'
b'$GPGSA,A,3,07,08,09,16,23,27,46,48,51,,,,2.8,1.3,2.5,1*2F\r\n$GLGSA,A,3,67,68,69,77,78,87,88,,,,,,2.7,1.0,2.5,2*33\r\n$GPGSV,3,1,09,07,26,297,43,08,31,176,43,09,48,298,42,16,60,041,46,1*6C\r\n$GPGSV,3,2,09,23,66,225,46,27,54,133,47,46,41,204,00,48,20,242,00,1*67\r\n$GPGSV,3,3,09,51,36,216,00,,,,,,,,,,,,,1*59\r\n$GLGSV,2,1,07,67,22,211,43,68,41,273,45,69,18,327,39,77,48,045,44,1*73\r\n$GLGSV,2,2,07,78,46,310,39,87,40,086,41,88,24,142,45,,,,,1*4A\r\n'
b'$GPRMC,203019.60,A,4006.8278894,N,08142.2902621,W,0.08,108.41,120317,0.0,E,D*2F\r\n$GPGGA,203019.60,4006.8278894,N,08142.2902621,W,4,14,1.0,361.697,M,-34.312,M,0.6,*7E\r\n'
b'$GPGSA,A,3,07,08,09,16,23,26,27,46,48,51,,,2.1,0.9,1.9,1*26\r\n$GLGSA,A,3,67,68,69,77,78,87,88,,,,,,2.7,1.0,2.5,2*33\r\n$GPGSV,3,1,10,07,26,297,46,08,31,176,47,09,48,298,46,16,60,041,49,1*6E\r\n$GPGSV,3,2,10,23,66,225,50,26,32,054,36,27,54,133,50,46,41,204,00,1*65\r\n$GPGSV,3,3,10,48,20,242,00,51,36,216,00,,,,,,,,,1*6B\r\n$GLGSV,2,1,07,67,22,211,43,68,41,273,45,69,18,327,39,77,48,045,44,1*73\r\n$GLGSV,2,2,07,78,46,310,39,87,40,086,41,88,24,142,45,,,,,1*4A\r\n'
b'$GPRMC,203019.80,A,4006.8278885,N,08142.2902639,W,0.02,108.41,120317,0.0,E,D*22\r\n$GPGGA,203019.80,4006.8278885,N,08142.2902639,W,4,14,1.0,361.705,M,-34.312,M,0.8,*7D\r\n'
b'$GPGSA,A,3,07,08,09,16,23,26,27,46,48,51,,,2.1,0.9,1.9,1*26\r\n$GLGSA,A,3,67,68,69,77,78,87,88,,,,,,2.7,1.0,2.5,2*33\r\n$GPGSV,3,1,10,07,26,297,46,08,31,176,47,09,48,298,46,16,60,041,49,1*6E\r\n$GPGSV,3,2,10,23,66,225,50,26,32,054,36,27,54,133,50,46,41,204,00,1*65\r\n$GPGSV,3,3,10,48,20,242,00,51,36,216,00,,,,,,,,,1*6B\r\n$GLGSV,2,1,07,67,22,211,43,68,41,273,45,69,18,327,39,77,48,045,44,1*73\r\n$GLGSV,2,2,07,78,46,310,39,87,40,086,41,88,24,142,45,,,,,1*4A\r\n'
b'$GPRMC,203020.00,A,4006.8278885,N,08142.2902640,W,0.17,108.41,120317,0.0,E,D*2A\r\n$GPGGA,203020.00,4006.8278885,N,08142.2902640,W,4,14,1.0,361.707,M,-34.312,M,1.0,*7A\r\n'
b'$GPGSA,A,3,07,08,09,16,23,26,27,46,48,51,,,2.1,0.9,1.9,1*26\r\n$GLGSA,A,3,67,68,69,77,78,87,88,,,,,,2.7,1.0,2.5,2*33\r\n$GPGSV,3,1,10,07,26,297,46,08,31,176,47,09,48,298,46,16,60,041,49,1*6E\r\n$GPGSV,3,2,10,23,66,225,50,26,32,054,36,27,54,133,50,46,41,204,00,1*65\r\n$GPGSV,3,3,10,48,20,242,00,51,36,216,00,,,,,,,,,1*6B\r\n$GLGSV,2,1,07,67,22,211,43,68,41,273,45,69,18,327,39,77,48,045,44,1*73\r\n$GLGSV,2,2,07,78,46,310,39,87,40,086,41,88,24,142,45,,,,,1*4A\r\n'
b'$GPRMC,203020.20,A,4006.8278897,N,08142.2902637,W,0.08,108.41,120317,0.0,E,D*25\r\n$GPGGA,203020.20,4006.8278897,N,08142.2902637,W,4,14,1.0,361.705,M,-34.312,M,0.2,*7A\r\n'
b'$GPGSA,A,3,07,08,09,16,23,26,27,46,48,51,,,2.1,0.9,1.9,1*26\r\n$GLGSA,A,3,67,68,69,77,78,87,88,,,,,,2.7,1.0,2.5,2*33\r\n$GPGSV,3,1,10,07,26,297,46,08,31,176,47,09,48,298,46,16,60,041,49,1*6E\r\n$GPGSV,3,2,10,23,66,225,50,26,32,054,36,27,54,133,50,46,41,204,00,1*65\r\n$GPGSV,3,3,10,48,20,242,00,51,36,216,00,,,,,,,,,1*6B\r\n$GLGSV,2,1,07,67,22,211,43,68,41,273,45,69,18,327,39,77,48,045,44,1*73\r\n$GLGSV,2,2,07,78,46,310,39,87,40,086,41,88,24,142,45,,,,,1*4A\r\n'
b'$GPRMC,203020.40,A,4006.8278899,N,08142.2902642,W,0.12,108.41,120317,0.0,E,D*24\r\n$GPGGA,203020.40,4006.8278899,N,08142.2902642,W,4,14,1.0,361.707,M,-34.312,M,0.4,*74\r\n'
b'$GPGSA,A,3,07,08,09,16,23,26,27,46,48,51,,,2.1,0.9,1.9,1*26\r\n$GLGSA,A,3,67,68,69,77,78,87,88,,,,,,2.7,1.0,2.5,2*33\r\n$GPGSV,3,1,10,07,26,297,46,08,31,176,47,09,48,298,46,16,60,041,49,1*6E\r\n$GPGSV,3,2,10,23,66,225,50,26,32,054,36,27,54,133,51,46,41,204,00,1*64\r\n$GPGSV,3,3,10,48,20,242,00,51,36,216,00,,,,,,,,,1*6B\r\n$GLGSV,2,1,07,67,22,211,43,68,41,273,45,69,18,327,39,77,48,045,44,1*73\r\n$GLGSV,2,2,07,78,46,310,39,87,40,086,41,88,24,142,45,,,,,1*4A\r\n'
b'$GPRMC,203020.60,A,4006.8278897,N,08142.2902637,W,0.06,108.41,120317,0.0,E,D*2F\r\n$GPGGA,203020.60,4006.8278897,N,08142.2902637,W,4,14,1.0,361.710,M,-34.312,M,0.6,*7E\r\n'
b'$GPGSA,A,3,07,08,09,16,23,26,27,46,48,51,,,2.1,0.9,1.9,1*26\r\n$GLGSA,A,3,67,68,69,77,78,87,88,,,,,,2.7,1.0,2.5,2*33\r\n$GPGSV,3,1,10,07,26,297,46,08,31,176,47,09,48,298,46,16,60,041,49,1*6E\r\n$GPGSV,3,2,10,23,66,225,50,26,32,054,36,27,54,133,51,46,41,204,00,1*64\r\n$GPGSV,3,3,10,48,20,242,00,51,36,216,00,,,,,,,,,1*6B\r\n$GLGSV,2,1,07,67,22,211,43,68,41,273,45,69,18,327,39,77,48,045,44,1*73\r\n$GLGSV,2,2,07,78,46,310,39,87,40,086,41,88,24,142,45,,,,,1*4A\r\n'
b'$GPRMC,203020.80,A,4006.8278904,N,08142.2902635,W,0.05,108.41,120317,0.0,E,D*2B\r\n$GPGGA,203020.80,4006.8278904,N,08142.2902635,W,4,14,1.0,361.707,M,-34.312,M,0.8,*71\r\n'
b'$GPGSA,A,3,07,08,09,16,23,26,27,46,48,51,,,2.1,0.9,1.9,1*26\r\n$GLGSA,A,3,67,68,69,77,78,87,88,,,,,,2.7,1.0,2.5,2*33\r\n$GPGSV,3,1,10,07,26,297,44,08,31,176,45,09,48,298,44,16,60,041,47,1*62\r\n$GPGSV,3,2,10,23,66,225,48,26,32,054,36,27,54,133,48,46,41,204,00,1*65\r\n$GPGSV,3,3,10,48,20,242,00,51,36,216,00,,,,,,,,,1*6B\r\n$GLGSV,2,1,07,67,22,211,43,68,41,273,45,69,18,327,39,77,48,045,44,1*73\r\n$GLGSV,2,2,07,78,46,310,39,87,40,086,41,88,24,142,45,,,,,1*4A\r\n'
b'$GPRMC,203021.00,A,4006.8278961,N,08142.2902569,W,0.10,108.41,120317,0.0,E,D*2F\r\n$GPGGA,203021.00,4006.8278961,N,08142.2902569,W,4,13,1.0,361.688,M,-34.312,M,1.0,*79\r\n'
b'$GPGSA,A,3,07,08,09,16,23,27,46,51,,,,,3.0,1.3,2.7,1*28\r\n$GLGSA,A,3,67,68,69,77,78,87,88,,,,,,2.7,1.0,2.5,2*33\r\n$GPGSV,2,1,08,07,26,297,38,08,31,176,40,09,48,298,39,16,60,041,42,1*6B\r\n$GPGSV,2,2,08,23,66,225,42,27,54,133,43,46,41,204,00,51,36,216,00,1*69\r\n$GLGSV,2,1,07,67,22,211,43,68,41,273,45,69,18,327,39,77,48,045,44,1*73\r\n$GLGSV,2,2,07,78,46,310,39,87,40,086,41,88,24,142,45,,,,,1*4A\r\n'
b'$GPRMC,203021.20,A,4006.8278943,N,08142.2902550,W,0.10,108.41,120317,0.0,E,D*27\r\n$GPGGA,203021.20,4006.8278943,N,08142.2902550,W,4,13,1.0,361.681,M,-34.312,M,0.2,*7B\r\n'
b'$GPGSA,A,3,07,08,09,16,23,27,46,48,51,,,,2.8,1.3,2.5,1*2F\r\n$GLGSA,A,3,67,68,69,77,78,87,88,,,,,,2.7,1.0,2.5,2*33\r\n$GPGSV,3,1,09,07,26,297,41,08,31,176,42,09,48,298,41,16,60,041,45,1*6F\r\n$GPGSV,3,2,09,23,66,225,45,27,54,133,46,46,41,204,00,48,20,242,00,1*65\r\n$GPGSV,3,3,09,51,36,216,00,,,,,,,,,,,,,1*59\r\n$GLGSV,2,1,07,67,22,211,43,68,41,273,45,69,18,327,39,77,48,045,44,1*73\r\n$GLGSV,2,2,07,78,46,310,39,87,40,086,41,88,24,142,45,,,,,1*4A\r\n'
b'$GPRMC,203021.40,A,4006.8278942,N,08142.2902565,W,0.12,108.41,120317,0.0,E,D*24\r\n$GPGGA,203021.40,4006.8278942,N,08142.2902565,W,4,13,1.0,361.682,M,-34.312,M,0.4,*7F\r\n'
b'$GPGSA,A,3,07,08,09,16,23,27,46,48,51,,,,2.8,1.3,2.5,1*2F\r\n$GLGSA,A,3,67,68,69,77,78,87,88,,,,,,2.7,1.0,2.5,2*33\r\n$GPGSV,3,1,09,07,26,297,42,08,31,176,43,09,48,298,41,16,60,041,45,1*6D\r\n$GPGSV,3,2,09,23,66,225,45,27,54,133,46,46,41,204,00,48,20,242,00,1*65\r\n$GPGSV,3,3,09,51,36,216,00,,,,,,,,,,,,,1*59\r\n$GLGSV,2,1,07,67,22,211,43,68,41,273,45,69,18,327,39,77,48,045,45,1*72\r\n$GLGSV,2,2,07,78,46,310,39,87,40,086,41,88,24,142,45,,,,,1*4A\r\n'
b'$GPRMC,203021.60,A,4006.8278944,N,08142.2902560,W,0.03,108.41,120317,0.0,E,D*25\r\n$GPGGA,203021.60,4006.8278944,N,08142.2902560,W,4,13,1.0,361.681,M,-34.312,M,0.6,*7F\r\n'
b'$GPGSA,A,3,07,08,09,16,23,27,46,48,51,,,,2.8,1.3,2.5,1*2F\r\n$GLGSA,A,3,67,68,69,77,78,87,88,,,,,,2.7,1.0,2.5,2*33\r\n$GPGSV,3,1,09,07,26,297,42,08,31,176,43,09,48,298,43,16,60,041,46,1*6C\r\n$GPGSV,3,2,09,23,66,225,46,27,54,133,47,46,41,204,00,48,20,242,00,1*67\r\n$GPGSV,3,3,09,51,36,216,00,,,,,,,,,,,,,1*59\r\n$GLGSV,2,1,07,67,22,211,43,68,41,273,45,69,18,327,39,77,48,045,45,1*72\r\n$GLGSV,2,2,07,78,46,310,39,87,40,086,41,88,24,142,45,,,,,1*4A\r\n'
b'$GPRMC,203021.80,A,4006.8278943,N,08142.2902566,W,0.05,108.41,120317,0.0,E,D*2C\r\n$GPGGA,203021.80,4006.8278943,N,08142.2902566,W,4,13,1.0,361.682,M,-34.312,M,0.8,*7D\r\n'
b'$GPGSA,A,3,07,08,09,16,23,27,46,48,51,,,,2.8,1.3,2.5,1*2F\r\n$GLGSA,A,3,67,68,69,77,78,87,88,,,,,,2.7,1.0,2.5,2*33\r\n$GPGSV,3,1,09,07,26,297,42,08,31,176,43,09,48,298,43,16,60,041,46,1*6C\r\n$GPGSV,3,2,09,23,66,225,46,27,54,133,47,46,41,204,00,48,20,242,00,1*67\r\n$GPGSV,3,3,09,51,36,216,00,,,,,,,,,,,,,1*59\r\n$GLGSV,2,1,07,67,22,211,43,68,41,273,45,69,18,327,39,77,48,045,45,1*72\r\n$GLGSV,2,2,07,78,46,310,39,87,40,086,41,88,24,142,45,,,,,1*4A\r\n'
b'$GPRMC,203022.00,A,4006.8278941,N,08142.2902561,W,0.10,108.41,120317,0.0,E,D*26\r\n$GPGGA,203022.00,4006.8278941,N,08142.2902561,W,4,13,1.0,361.684,M,-34.312,M,1.0,*7C\r\n$GPGSA,A,3,07,08,09,16,23,27,46,48,51,,,,2.8,1.3,2.5,1*2F\r\n$GLGSA,A,3,67,68,69,77,78,87,88,,,,,,2.7,1.0,2.5,2*33\r\n$GPGSV,3,1,09,07,26,297,43,08,31,176,44,09,48,298,44,16,60,041,47,1*6C\r\n$GPGSV,3,2,09,23,66,225,48,27,54,133,48,46,41,204,00,48,20,242,00,1*66\r\n$GPGSV,3,3,09,51,36,216,00,,,,,,,,,,,,,1*59\r\n$GLGSV,2,1,07,67,22,211,43,68,41,273,46,69'
b',18,327,39,77,48,045,45,1*71\r\n$GLGSV,2,2,07,78,46,310,39,87,40,086,41,88,24,142,45,,,,,1*4A\r\n'
b'$GPRMC,203022.20,A,4006.8278945,N,08142.2902557,W,0.07,108.41,120317,0.0,E,D*23\r\n$GPGGA,203022.20,4006.8278945,N,08142.2902557,W,4,13,1.0,361.675,M,-34.312,M,0.2,*72\r\n'
b'$GPGSA,A,3,07,08,09,16,23,27,46,48,51,,,,2.8,1.3,2.5,1*2F\r\n$GLGSA,A,3,67,68,69,77,78,87,88,,,,,,2.7,1.0,2.5,2*33\r\n$GPGSV,3,1,09,07,26,297,43,08,31,176,44,09,48,298,44,16,60,041,47,1*6C\r\n$GPGSV,3,2,09,23,66,225,48,27,54,133,48,46,41,204,00,48,20,242,00,1*66\r\n$GPGSV,3,3,09,51,36,216,00,,,,,,,,,,,,,1*59\r\n$GLGSV,2,1,07,67,22,211,43,68,41,273,46,69,18,327,39,77,48,045,45,1*71\r\n$GLGSV,2,2,07,78,46,310,39,87,40,086,41,88,24,142,45,,,,,1*4A\r\n'
b'$GPRMC,203022.40,A,4006.8278891,N,08142.2902634,W,0.05,108.41,120317,0.0,E,D*29\r\n$GPGGA,203022.40,4006.8278891,N,08142.2902634,W,4,14,1.0,361.702,M,-34.312,M,0.4,*7A\r\n'
b'$GPGSA,A,3,07,08,09,16,23,26,27,46,48,51,,,2.1,0.9,1.9,1*26\r\n$GLGSA,A,3,67,68,69,77,78,87,88,,,,,,2.7,1.0,2.5,2*33\r\n$GPGSV,3,1,10,07,26,297,48,08,31,176,49,09,48,298,48,16,60,041,51,1*69\r\n$GPGSV,3,2,10,23,66,225,52,26,31,054,38,27,54,133,53,46,41,204,00,1*69\r\n$GPGSV,3,3,10,48,20,242,00,51,36,216,00,,,,,,,,,1*6B\r\n$GLGSV,2,1,07,67,22,211,43,68,41,273,45,69,18,327,39,77,48,045,45,1*72\r\n$GLGSV,2,2,07,78,46,310,39,87,40,086,41,88,24,142,45,,,,,1*4A\r\n'
b'$GPRMC,203022.60,A,4006.8278883,N,08142.2902632,W,0.02,108.41,120317,0.0,E,D*29\r\n$GPGGA,203022.60,4006.8278883,N,08142.2902632,W,4,14,1.0,361.706,M,-34.312,M,0.6,*7B\r\n'
b'$GPGSA,A,3,07,08,09,16,23,26,27,46,48,51,,,2.1,0.9,1.9,1*26\r\n$GLGSA,A,3,67,68,69,77,78,87,88,,,,,,2.7,1.0,2.5,2*33\r\n$GPGSV,3,1,10,07,26,297,48,08,31,176,48,09,48,298,47,16,60,041,51,1*67\r\n$GPGSV,3,2,10,23,66,225,51,26,31,054,38,27,54,133,52,46,41,204,00,1*6B\r\n$GPGSV,3,3,10,48,20,242,00,51,36,216,00,,,,,,,,,1*6B\r\n$GLGSV,2,1,07,67,22,211,43,68,41,273,45,69,18,327,39,77,48,045,45,1*72\r\n$GLGSV,2,2,07,78,46,310,39,87,40,086,40,88,24,142,45,,,,,1*4B\r\n'
b'$GPRMC,203022.80,A,4006.8278884,N,08142.2902634,W,0.05,108.41,120317,0.0,E,D*21\r\n$GPGGA,203022.80,4006.8278884,N,08142.2902634,W,4,14,1.0,361.707,M,-34.312,M,0.8,*7B\r\n'
b'$GPGSA,A,3,07,08,09,16,23,26,27,46,48,51,,,2.1,0.9,1.9,1*26\r\n$GLGSA,A,3,67,68,69,77,78,87,88,,,,,,2.7,1.0,2.5,2*33\r\n$GPGSV,3,1,10,07,26,297,47,08,31,176,48,09,48,298,47,16,60,041,51,1*68\r\n$GPGSV,3,2,10,23,66,225,51,26,31,054,38,27,54,133,52,46,41,204,00,1*6B\r\n$GPGSV,3,3,10,48,20,242,00,51,36,216,00,,,,,,,,,1*6B\r\n$GLGSV,2,1,07,67,22,211,43,68,41,273,45,69,18,327,39,77,48,045,45,1*72\r\n$GLGSV,2,2,07,78,46,310,39,87,40,086,40,88,24,142,45,,,,,1*4B\r\n'
b'$GPRMC,203023.00,A,4006.8278886,N,08142.2902643,W,0.04,108.41,120317,0.0,E,D*2B\r\n$GPGGA,203023.00,4006.8278886,N,08142.2902643,W,4,14,1.0,361.708,M,-34.312,M,1.0,*76\r\n'
b'$GPGSA,A,3,07,08,09,16,23,26,27,46,48,51,,,2.1,0.9,1.9,1*26\r\n$GLGSA,A,3,67,68,69,77,78,87,88,,,,,,2.7,1.0,2.5,2*33\r\n$GPGSV,3,1,10,07,26,297,47,08,31,176,48,09,48,298,47,16,60,041,51,1*68\r\n$GPGSV,3,2,10,23,66,225,51,26,31,054,38,27,54,133,52,46,41,204,00,1*6B\r\n$GPGSV,3,3,10,48,20,242,00,51,36,216,00,,,,,,,,,1*6B\r\n$GLGSV,2,1,07,67,22,211,43,68,41,273,45,69,18,327,39,77,48,045,45,1*72\r\n$GLGSV,2,2,07,78,46,310,39,87,40,086,40,88,24,142,45,,,,,1*4B\r\n'
b'$GPRMC,203023.20,A,4006.8278875,N,08142.2902649,W,0.03,108.41,120317,0.0,E,D*28\r\n$GPGGA,203023.20,4006.8278875,N,08142.2902649,W,4,14,1.0,361.709,M,-34.312,M,0.2,*70\r\n'
b'$GPGSA,A,3,07,08,09,16,23,26,27,46,48,51,,,2.1,0.9,1.9,1*26\r\n$GLGSA,A,3,67,68,69,77,78,87,88,,,,,,2.7,1.0,2.5,2*33\r\n$GPGSV,3,1,10,07,26,297,47,08,31,176,48,09,48,298,47,16,60,041,50,1*69\r\n$GPGSV,3,2,10,23,66,225,51,26,31,054,38,27,54,133,52,46,41,204,00,1*6B\r\n$GPGSV,3,3,10,48,20,242,00,51,36,216,00,,,,,,,,,1*6B\r\n$GLGSV,2,1,07,67,22,211,43,68,41,273,45,69,18,327,39,77,48,045,45,1*72\r\n$GLGSV,2,2,07,78,46,310,39,87,40,086,40,88,24,142,45,,,,,1*4B\r\n'
b'$GPRMC,203023.40,A,4006.8278874,N,08142.2902643,W,0.18,108.41,120317,0.0,E,D*2F\r\n$GPGGA,203023.40,4006.8278874,N,08142.2902643,W,4,14,1.0,361.709,M,-34.312,M,0.4,*7B\r\n$GPGSA,A,3,07,08,09,16,23,26,27,46,48,51,,,2.1,0.9,1.9,1*26\r\n$GLGSA,A,3,67,68,69,77,78,87,88,,,,,,2.7,1.0,2.5,2*33\r\n$GPGSV,3,1,10,07,26,297,47,08,31,176,48,09,48,298,47,16,60,041,50,1*69\r\n$GPGSV,3,2,10,23,66,225,51,26,31,054,38,27,54,133,52,46,41,204,00,1*6B\r\n$GPGSV,3,3,10,48,20,242,00,51,36,216,00,,,,,,,,,1*6B\r\n$GLGSV,2,1,07,67,22,211,43,68,4'
b'1,273,45,69,18,327,39,77,48,045,44,1*73\r\n$GLGSV,2,2,07,78,46,311,39,87,40,086,40,88,24,142,45,,,,,1*4A\r\n'
b'$GPRMC,203023.60,A,4006.8278877,N,08142.2902642,W,0.03,108.41,120317,0.0,E,D*25\r\n$GPGGA,203023.60,4006.8278877,N,08142.2902642,W,4,14,1.0,361.706,M,-34.312,M,0.6,*76\r\n$GPGSA,A,3,07,08,09,16,23,26,27,46,48,51,,,2.1,0.9,1.9,1*26\r\n$GLGSA,A,3,67,68,69,77,78,87,88,,,,,,2.7,1.0,2.5,2*33\r\n$GPGSV,3,1,10,07,26,297,47,08,31,176,48,09,48,298,47,16,60,041,50,1*69\r\n$GPGSV,3,2,10,23,66,225,51,26,31,054,38,27,54,133,52,46,41,204,00,1*6B\r\n$GPGSV,3,3,10,48,20,242,00,51,36,216,00,,,,,,,,,1*6B\r\n$GLGSV,2,1,07,67,22,211,43,68,4'
b'1,273,45,69,18,327,38,77,48,045,44,1*72\r\n$GLGSV,2,2,07,78,46,311,39,87,40,086,40,88,24,142,45,,,,,1*4A\r\n'
b'$GPRMC,203023.80,A,4006.8278877,N,08142.2902642,W,0.04,108.41,120317,0.0,E,D*2C\r\n$GPGGA,203023.80,4006.8278877,N,08142.2902642,W,4,14,1.0,361.706,M,-34.312,M,0.8,*76\r\n'
b'$GPGSA,A,3,07,08,09,16,23,26,27,46,48,51,,,2.1,0.9,1.9,1*26\r\n$GLGSA,A,3,67,68,69,77,78,87,88,,,,,,2.7,1.0,2.5,2*33\r\n$GPGSV,3,1,10,07,26,297,47,08,31,176,48,09,48,298,47,16,60,041,50,1*69\r\n$GPGSV,3,2,10,23,66,225,51,26,31,054,38,27,54,133,52,46,41,204,00,1*6B\r\n$GPGSV,3,3,10,48,20,242,00,51,36,216,00,,,,,,,,,1*6B\r\n$GLGSV,2,1,07,67,22,211,43,68,41,273,45,69,18,327,39,77,48,045,44,1*73\r\n$GLGSV,2,2,07,78,46,311,39,87,40,086,40,88,24,142,45,,,,,1*4A\r\n'
b'$GPRMC,203024.00,A,4006.8278875,N,08142.2902642,W,0.05,108.41,120317,0.0,E,D*20\r\n$GPGGA,203024.00,4006.8278875,N,08142.2902642,W,4,14,1.0,361.708,M,-34.312,M,1.0,*7C\r\n$GPGSA,A,3,07,08,09,16,23,26,27,46,48,51,,,2.1,0.9,1.9,1*26\r\n$GLGSA,A,3,67,68,69,77,78,87,88,,,,,,2.7,1.0,2.5,2*33\r\n$GPGSV,3,1,10,07,26,297,46,08,31,176,47,09,48,298,47,16,59,041,50,1*6D\r\n$GPGSV,3,2,10,23,66,225,50,26,31,054,37,27,54,133,51,46,41,204,00,1*66\r\n$GPGSV,3,3,10,48,20,242,00,51,36,216,00,,,,,,,,,1*6B\r\n$GLGSV,2,1,07,67,22,211,43,68,4'
b'1,273,45,69,18,327,39,77,48,045,44,1*73\r\n$GLGSV,2,2,07,78,46,311,39,87,40,086,40,88,24,142,45,,,,,1*4A\r\n'
b'$GPRMC,203024.20,A,4006.8278878,N,08142.2902641,W,0.09,108.41,120317,0.0,E,D*20\r\n$GPGGA,203024.20,4006.8278878,N,08142.2902641,W,4,14,1.0,361.715,M,-34.312,M,0.2,*7F\r\n'
b'$GPGSA,A,3,07,08,09,16,23,26,27,46,48,51,,,2.1,0.9,1.9,1*26\r\n$GLGSA,A,3,67,68,69,77,78,87,88,,,,,,2.7,1.0,2.5,2*33\r\n$GPGSV,3,1,10,07,26,297,46,08,31,176,47,09,48,298,47,16,59,041,50,1*6D\r\n$GPGSV,3,2,10,23,66,225,50,26,31,054,37,27,54,133,51,46,41,204,00,1*66\r\n$GPGSV,3,3,10,48,20,242,00,51,36,216,00,,,,,,,,,1*6B\r\n$GLGSV,2,1,07,67,22,211,43,68,41,273,45,69,18,327,39,77,48,045,44,1*73\r\n$GLGSV,2,2,07,78,46,311,39,87,40,086,40,88,24,142,45,,,,,1*4A\r\n'
b'$GPRMC,203024.40,A,4006.8278874,N,08142.2902639,W,0.07,108.41,120317,0.0,E,D*2B\r\n$GPGGA,203024.40,4006.8278874,N,08142.2902639,W,4,14,1.0,361.714,M,-34.312,M,0.4,*7D\r\n'
b'$GPGSA,A,3,07,08,09,16,23,26,27,46,48,51,,,2.1,0.9,1.9,1*26\r\n$GLGSA,A,3,67,68,69,77,78,87,88,,,,,,2.7,1.0,2.6,2*30\r\n$GPGSV,3,1,10,07,26,297,46,08,31,176,47,09,48,298,46,16,59,041,50,1*6C\r\n$GPGSV,3,2,10,23,66,225,50,26,31,054,37,27,54,133,51,46,41,204,00,1*66\r\n$GPGSV,3,3,10,48,20,242,00,51,36,216,00,,,,,,,,,1*6B\r\n$GLGSV,2,1,07,67,22,211,43,68,41,273,45,69,18,327,39,77,48,045,44,1*73\r\n$GLGSV,2,2,07,78,46,311,39,87,40,086,40,88,24,142,45,,,,,1*4A\r\n'
b'$GPRMC,203024.60,A,4006.8278870,N,08142.2902639,W,0.05,108.41,120317,0.0,E,D*2F\r\n$GPGGA,203024.60,4006.8278870,N,08142.2902639,W,4,14,1.0,361.713,M,-34.312,M,0.6,*7E\r\n'
b'$GPGSA,A,3,07,08,09,16,23,26,27,46,48,51,,,2.1,0.9,1.9,1*26\r\n$GLGSA,A,3,67,68,69,77,78,87,88,,,,,,2.7,1.0,2.6,2*30\r\n$GPGSV,3,1,10,07,26,297,46,08,31,176,48,09,48,298,46,16,59,041,50,1*63\r\n$GPGSV,3,2,10,23,66,225,50,26,31,054,37,27,54,133,51,46,41,204,00,1*66\r\n$GPGSV,3,3,10,48,20,242,00,51,36,216,00,,,,,,,,,1*6B\r\n$GLGSV,2,1,07,67,22,211,43,68,41,273,45,69,18,327,39,77,48,045,44,1*73\r\n$GLGSV,2,2,07,78,46,311,39,87,40,086,40,88,24,142,45,,,,,1*4A\r\n'
b'$GPRMC,203024.80,A,4006.8278875,N,08142.2902635,W,0.21,108.41,120317,0.0,E,D*2E\r\n$GPGGA,203024.80,4006.8278875,N,08142.2902635,W,4,14,1.0,361.714,M,-34.312,M,0.8,*70\r\n'
b'$GPGSA,A,3,07,08,09,16,23,26,27,46,48,51,,,2.1,0.9,1.9,1*26\r\n$GLGSA,A,3,67,68,69,77,78,87,88,,,,,,2.7,1.0,2.6,2*30\r\n$GPGSV,3,1,10,07,26,297,46,08,31,176,48,09,48,298,46,16,59,041,50,1*63\r\n$GPGSV,3,2,10,23,66,225,50,26,31,054,37,27,54,133,51,46,41,204,00,1*66\r\n$GPGSV,3,3,10,48,20,242,00,51,36,216,00,,,,,,,,,1*6B\r\n$GLGSV,2,1,07,67,22,211,43,68,41,273,45,69,18,327,39,77,48,045,44,1*73\r\n$GLGSV,2,2,07,78,46,311,39,87,40,086,41,88,24,142,45,,,,,1*4B\r\n'
b'$GPRMC,203025.00,A,4006.8278875,N,08142.2902640,W,0.03,108.41,120317,0.0,E,D*25\r\n$GPGGA,203025.00,4006.8278875,N,08142.2902640,W,4,14,1.0,361.713,M,-34.312,M,1.0,*75\r\n'
b'$GPGSA,A,3,07,08,09,16,23,26,27,46,48,51,,,2.1,0.9,1.9,1*26\r\n$GLGSA,A,3,67,68,69,77,78,87,88,,,,,,2.7,1.0,2.6,2*30\r\n$GPGSV,3,1,10,07,26,297,46,08,31,176,48,09,48,298,46,16,59,041,50,1*63\r\n$GPGSV,3,2,10,23,66,225,50,26,31,054,37,27,54,133,51,46,41,204,00,1*66\r\n$GPGSV,3,3,10,48,20,242,00,51,36,216,00,,,,,,,,,1*6B\r\n$GLGSV,2,1,07,67,22,211,44,68,41,273,45,69,18,327,39,77,48,045,44,1*74\r\n$GLGSV,2,2,07,78,46,311,39,87,40,086,41,88,24,142,45,,,,,1*4B\r\n'
b'$GPRMC,203025.20,A,4006.8278875,N,08142.2902636,W,0.08,108.41,120317,0.0,E,D*2D\r\n$GPGGA,203025.20,4006.8278875,N,08142.2902636,W,4,14,1.0,361.710,M,-34.312,M,0.2,*76\r\n'
b'$GPGSA,A,3,07,08,09,16,23,26,27,46,48,51,,,2.1,0.9,1.9,1*26\r\n$GLGSA,A,3,67,68,69,77,78,87,88,,,,,,2.7,1.0,2.6,2*30\r\n$GPGSV,3,1,10,07,26,297,46,08,31,176,48,09,48,298,46,16,59,041,50,1*63\r\n$GPGSV,3,2,10,23,66,225,50,26,31,054,37,27,54,133,51,46,41,204,00,1*66\r\n$GPGSV,3,3,10,48,20,242,00,51,36,216,00,,,,,,,,,1*6B\r\n$GLGSV,2,1,07,67,22,211,44,68,41,273,45,69,18,327,39,77,48,045,44,1*74\r\n$GLGSV,2,2,07,78,46,311,39,87,40,086,41,88,24,142,45,,,,,1*4B\r\n'
b'$GPRMC,203025.40,A,4006.8278927,N,08142.2902561,W,0.10,108.41,120317,0.0,E,D*25\r\n$GPGGA,203025.40,4006.8278927,N,08142.2902561,W,4,13,1.0,361.679,M,-34.312,M,0.4,*78\r\n'
b'$GPGSA,A,3,07,08,09,16,23,27,46,48,51,,,,2.8,1.3,2.5,1*2F\r\n$GLGSA,A,3,67,68,69,77,78,87,88,,,,,,2.7,1.0,2.6,2*30\r\n$GPGSV,3,1,09,07,26,297,46,08,31,176,48,09,48,298,46,16,59,041,50,1*6B\r\n$GPGSV,3,2,09,23,66,225,50,27,54,133,51,46,41,204,00,48,20,242,00,1*67\r\n$GPGSV,3,3,09,51,36,216,00,,,,,,,,,,,,,1*59\r\n$GLGSV,2,1,07,67,22,211,44,68,41,273,45,69,18,327,39,77,48,045,44,1*74\r\n$GLGSV,2,2,07,78,46,311,39,87,40,086,42,88,24,142,45,,,,,1*48\r\n'
b'$GPRMC,203025.60,A,4006.8278931,N,08142.2902551,W,0.02,108.41,120317,0.0,E,D*20\r\n$GPGGA,203025.60,4006.8278931,N,08142.2902551,W,4,13,1.0,361.679,M,-34.312,M,0.6,*7C\r\n'
b'$GPGSA,A,3,07,08,09,16,23,27,46,48,51,,,,2.8,1.3,2.5,1*2F\r\n$GLGSA,A,3,67,68,69,77,78,87,88,,,,,,2.7,1.0,2.6,2*30\r\n$GPGSV,3,1,09,07,26,297,46,08,31,176,48,09,48,298,46,16,59,041,50,1*6B\r\n$GPGSV,3,2,09,23,66,225,50,27,54,133,51,46,41,204,00,48,20,242,00,1*67\r\n$GPGSV,3,3,09,51,36,216,00,,,,,,,,,,,,,1*59\r\n$GLGSV,2,1,07,67,22,211,44,68,41,273,45,69,18,327,39,77,48,045,44,1*74\r\n$GLGSV,2,2,07,78,46,311,39,87,40,086,42,88,24,142,45,,,,,1*48\r\n'
b'$GPRMC,203025.80,A,4006.8278936,N,08142.2902547,W,0.16,108.41,120317,0.0,E,D*2B\r\n$GPGGA,203025.80,4006.8278936,N,08142.2902547,W,4,13,1.0,361.678,M,-34.312,M,0.8,*7D\r\n'
b'$GPGSA,A,3,07,08,09,16,23,27,46,48,51,,,,2.8,1.3,2.5,1*2F\r\n$GLGSA,A,3,67,68,69,77,78,87,88,,,,,,2.7,1.0,2.6,2*30\r\n$GPGSV,3,1,09,07,26,297,46,08,31,176,48,09,48,298,47,16,59,041,50,1*6A\r\n$GPGSV,3,2,09,23,66,225,50,27,54,133,51,46,41,204,00,48,20,242,00,1*67\r\n$GPGSV,3,3,09,51,36,216,00,,,,,,,,,,,,,1*59\r\n$GLGSV,2,1,07,67,22,211,43,68,41,273,45,69,19,327,39,77,48,045,44,1*72\r\n$GLGSV,2,2,07,78,46,311,39,87,40,086,41,88,24,142,45,,,,,1*4B\r\n'
b'$GPRMC,203026.00,A,4006.8278926,N,08142.2902548,W,0.08,108.41,120317,0.0,E,D*21\r\n$GPGGA,203026.00,4006.8278926,N,08142.2902548,W,4,13,1.0,361.678,M,-34.312,M,1.0,*71\r\n'
b'$GPGSA,A,3,07,08,09,16,23,27,46,48,51,,,,2.8,1.3,2.5,1*2F\r\n$GLGSA,A,3,67,68,69,77,78,87,88,,,,,,2.7,1.0,2.6,2*30\r\n$GPGSV,3,1,09,07,26,297,46,08,31,176,48,09,48,298,47,16,59,041,50,1*6A\r\n$GPGSV,3,2,09,23,66,225,50,27,54,133,51,46,41,204,00,48,20,242,00,1*67\r\n$GPGSV,3,3,09,51,36,216,00,,,,,,,,,,,,,1*59\r\n$GLGSV,2,1,07,67,22,211,43,68,41,273,45,69,19,327,39,77,48,045,43,1*75\r\n$GLGSV,2,2,07,78,46,311,39,87,40,086,40,88,24,142,45,,,,,1*4A\r\n'
b'$GPRMC,203026.20,A,4006.8278930,N,08142.2902540,W,0.08,108.41,120317,0.0,E,D*2C\r\n$GPGGA,203026.20,4006.8278930,N,08142.2902540,W,4,13,1.0,361.677,M,-34.312,M,0.2,*70\r\n'
b'$GPGSA,A,3,07,08,09,16,23,27,46,48,51,,,,2.8,1.3,2.5,1*2F\r\n$GLGSA,A,3,67,68,69,77,78,87,88,,,,,,2.7,1.0,2.6,2*30\r\n$GPGSV,3,1,09,07,26,297,45,08,31,176,48,09,48,298,47,16,59,041,50,1*69\r\n$GPGSV,3,2,09,23,66,225,50,27,54,133,51,46,41,204,00,48,20,242,00,1*67\r\n$GPGSV,3,3,09,51,36,216,00,,,,,,,,,,,,,1*59\r\n$GLGSV,2,1,07,67,22,211,43,68,41,273,45,69,19,327,39,77,48,045,43,1*75\r\n$GLGSV,2,2,07,78,46,311,39,87,40,086,39,88,24,142,45,,,,,1*44\r\n'
b'$GPRMC,203026.40,A,4006.8278932,N,08142.2902591,W,0.14,108.41,120317,0.0,E,D*29\r\n$GPGGA,203026.40,4006.8278932,N,08142.2902591,W,4,13,1.0,361.676,M,-34.312,M,0.4,*7F\r\n'
b'$GPGSA,A,3,07,08,09,16,23,27,46,48,51,,,,2.8,1.3,2.5,1*2F\r\n$GLGSA,A,3,67,68,69,77,78,87,88,,,,,,2.7,1.0,2.6,2*30\r\n$GPGSV,3,1,09,07,26,297,45,08,31,176,48,09,48,298,47,16,59,041,49,1*61\r\n$GPGSV,3,2,09,23,66,225,50,27,54,133,51,46,41,204,00,48,20,242,00,1*67\r\n$GPGSV,3,3,09,51,36,216,00,,,,,,,,,,,,,1*59\r\n$GLGSV,2,1,07,67,22,211,44,68,41,273,45,69,19,327,39,77,48,045,42,1*73\r\n$GLGSV,2,2,07,78,46,311,39,87,40,086,36,88,24,142,45,,,,,1*4B\r\n'
b'$GPRMC,203026.60,A,4006.8278906,N,08142.2902573,W,0.23,108.41,120317,0.0,E,D*24\r\n$GPGGA,203026.60,4006.8278906,N,08142.2902573,W,4,13,1.0,361.678,M,-34.312,M,0.6,*7A\r\n'
b'$GPGSA,A,3,07,08,09,16,23,27,46,48,51,,,,2.8,1.3,2.5,1*2F\r\n$GLGSA,A,3,67,68,69,77,78,87,88,,,,,,2.7,1.0,2.6,2*30\r\n$GPGSV,3,1,09,07,26,297,46,08,31,176,48,09,48,298,47,16,59,041,48,1*63\r\n$GPGSV,3,2,09,23,66,225,50,27,54,133,51,46,41,204,00,48,20,242,00,1*67\r\n$GPGSV,3,3,09,51,36,216,00,,,,,,,,,,,,,1*59\r\n$GLGSV,2,1,07,67,22,211,44,68,41,273,45,69,19,327,37,77,48,045,40,1*7F\r\n$GLGSV,2,2,07,78,46,311,39,87,40,086,41,88,24,142,45,,,,,1*4B\r\n'
b'$GPRMC,203026.80,A,4006.8278934,N,08142.2902559,W,0.08,108.41,120317,0.0,E,D*2A\r\n$GPGGA,203026.80,4006.8278934,N,08142.2902559,W,4,13,1.0,361.668,M,-34.312,M,0.8,*72\r\n'
b'$GPGSA,A,3,07,08,09,16,23,27,46,48,51,,,,2.8,1.3,2.5,1*2F\r\n$GLGSA,A,3,67,68,69,77,78,87,88,,,,,,2.7,1.0,2.6,2*30\r\n$GPGSV,3,1,09,07,26,297,45,08,31,176,48,09,48,298,48,16,59,041,48,1*6F\r\n$GPGSV,3,2,09,23,66,225,50,27,54,133,51,46,41,204,00,48,20,242,00,1*67\r\n$GPGSV,3,3,09,51,36,216,00,,,,,,,,,,,,,1*59\r\n$GLGSV,2,1,07,67,22,211,43,68,41,273,45,69,19,327,41,77,48,045,40,1*79\r\n$GLGSV,2,2,07,78,46,311,38,87,40,086,41,88,24,142,45,,,,,1*4A\r\n'
b'$GPRMC,203027.00,A,4006.8278927,N,08142.2902535,W,0.11,108.41,120317,0.0,E,D*23\r\n$GPGGA,203027.00,4006.8278927,N,08142.2902535,W,4,13,1.0,361.674,M,-34.312,M,1.0,*77\r\n'
b'$GPGSA,A,3,07,08,09,16,23,27,46,48,51,,,,2.8,1.3,2.5,1*2F\r\n$GLGSA,A,3,67,68,69,77,78,87,88,,,,,,2.7,1.0,2.6,2*30\r\n$GPGSV,3,1,09,07,26,297,45,08,31,176,48,09,48,298,47,16,59,041,48,1*60\r\n$GPGSV,3,2,09,23,66,225,50,27,54,133,51,46,41,204,00,48,20,242,00,1*67\r\n$GPGSV,3,3,09,51,36,216,00,,,,,,,,,,,,,1*59\r\n$GLGSV,2,1,07,67,22,211,43,68,41,273,47,69,19,327,42,77,48,045,41,1*79\r\n$GLGSV,2,2,07,78,46,311,38,87,40,086,40,88,24,142,45,,,,,1*4B\r\n'
b'$GPRMC,203027.20,A,4006.8278945,N,08142.2902545,W,0.10,108.41,120317,0.0,E,D*23\r\n$GPGGA,203027.20,4006.8278945,N,08142.2902545,W,4,13,1.0,361.679,M,-34.312,M,0.2,*78\r\n'
b'$GPGSA,A,3,07,08,09,16,23,27,46,48,51,,,,2.8,1.3,2.5,1*2F\r\n$GLGSA,A,3,67,68,69,77,78,87,88,,,,,,2.7,1.0,2.6,2*30\r\n$GPGSV,3,1,09,07,26,297,45,08,31,176,48,09,48,298,47,16,59,041,49,1*61\r\n$GPGSV,3,2,09,23,66,225,50,27,54,133,51,46,41,204,00,48,20,242,00,1*67\r\n$GPGSV,3,3,09,51,36,216,00,,,,,,,,,,,,,1*59\r\n$GLGSV,2,1,07,67,22,211,43,68,41,273,46,69,19,327,40,77,48,045,41,1*7A\r\n$GLGSV,2,2,07,78,46,311,38,87,40,086,39,88,24,142,45,,,,,1*45\r\n'
b'$GPRMC,203027.40,A,4006.8278940,N,08142.2902545,W,0.04,108.41,120317,0.0,E,D*25\r\n$GPGGA,203027.40,4006.8278940,N,08142.2902545,W,4,13,1.0,361.674,M,-34.312,M,0.4,*70\r\n'
b'$GPGSA,A,3,07,08,09,16,23,27,46,48,51,,,,2.8,1.3,2.5,1*2F\r\n$GLGSA,A,3,67,68,69,77,78,87,88,,,,,,2.7,1.0,2.6,2*30\r\n$GPGSV,3,1,09,07,26,297,45,08,31,176,48,09,48,298,46,16,59,041,49,1*60\r\n$GPGSV,3,2,09,23,66,225,50,27,54,133,51,46,41,204,00,48,20,242,00,1*67\r\n$GPGSV,3,3,09,51,36,216,00,,,,,,,,,,,,,1*59\r\n$GLGSV,2,1,07,67,22,211,44,68,41,273,45,69,19,327,40,77,48,045,41,1*7E\r\n$GLGSV,2,2,07,78,46,311,38,87,40,086,39,88,24,142,45,,,,,1*45\r\n'
b'$GPRMC,203027.60,A,4006.8278936,N,08142.2902543,W,0.05,108.41,120317,0.0,E,D*21\r\n$GPGGA,203027.60,4006.8278936,N,08142.2902543,W,4,13,1.0,361.670,M,-34.312,M,0.6,*73\r\n'
b'$GPGSA,A,3,07,08,09,16,23,27,46,48,51,,,,2.8,1.3,2.5,1*2F\r\n$GLGSA,A,3,67,68,69,77,78,87,88,,,,,,2.7,1.0,2.6,2*30\r\n$GPGSV,3,1,09,07,26,297,45,08,31,176,48,09,48,298,46,16,59,041,48,1*61\r\n$GPGSV,3,2,09,23,66,225,50,27,54,133,51,46,41,204,00,48,20,242,00,1*67\r\n$GPGSV,3,3,09,51,36,216,00,,,,,,,,,,,,,1*59\r\n$GLGSV,2,1,07,67,22,211,44,68,41,273,45,69,19,327,40,77,48,045,41,1*7E\r\n$GLGSV,2,2,07,78,46,311,38,87,40,086,39,88,24,142,45,,,,,1*45\r\n'
b'$GPRMC,203027.80,A,4006.8278935,N,08142.2902542,W,0.08,108.41,120317,0.0,E,D*20\r\n$GPGGA,203027.80,4006.8278935,N,08142.2902542,W,4,13,1.0,361.672,M,-34.312,M,0.8,*73\r\n'
b'$GPGSA,A,3,07,08,09,16,23,27,46,48,51,,,,2.8,1.3,2.5,1*2F\r\n$GLGSA,A,3,67,68,69,77,78,87,88,,,,,,2.7,1.0,2.6,2*30\r\n$GPGSV,3,1,09,07,26,297,46,08,31,176,48,09,48,298,46,16,59,041,48,1*62\r\n$GPGSV,3,2,09,23,66,225,50,27,54,133,51,46,41,204,00,48,20,242,00,1*67\r\n$GPGSV,3,3,09,51,36,216,00,,,,,,,,,,,,,1*59\r\n$GLGSV,2,1,07,67,22,211,44,68,41,273,45,69,19,327,40,77,48,045,41,1*7E\r\n$GLGSV,2,2,07,78,46,311,38,87,40,086,39,88,24,142,44,,,,,1*44\r\n'
b'$GPRMC,203028.00,A,4006.8278919,N,08142.2902528,W,0.13,108.41,120317,0.0,E,D*2F\r\n$GPGGA,203028.00,4006.8278919,N,08142.2902528,W,4,13,1.0,361.673,M,-34.312,M,1.0,*7E\r\n'
b'$GPGSA,A,3,07,08,09,16,23,27,46,48,51,,,,2.8,1.3,2.5,1*2F\r\n$GLGSA,A,3,67,68,69,77,78,87,88,,,,,,2.7,1.0,2.6,2*30\r\n$GPGSV,3,1,09,07,26,297,45,08,31,176,48,09,48,298,46,16,59,041,48,1*61\r\n$GPGSV,3,2,09,23,66,225,50,27,54,133,51,46,41,204,00,48,20,242,00,1*67\r\n$GPGSV,3,3,09,51,36,216,00,,,,,,,,,,,,,1*59\r\n$GLGSV,2,1,07,67,22,211,44,68,41,273,45,69,19,327,40,77,48,045,41,1*7E\r\n$GLGSV,2,2,07,78,46,311,38,87,40,086,38,88,24,142,44,,,,,1*45\r\n'
b'$GPRMC,203028.20,A,4006.8278935,N,08142.2902573,W,0.09,108.41,120317,0.0,E,D*26\r\n$GPGGA,203028.20,4006.8278935,N,08142.2902573,W,4,13,1.0,361.671,M,-34.312,M,0.2,*7D\r\n'
b'$GPGSA,A,3,07,08,09,16,23,27,46,48,51,,,,2.8,1.3,2.5,1*2F\r\n$GLGSA,A,3,67,68,69,77,78,87,88,,,,,,2.7,1.0,2.6,2*30\r\n$GPGSV,3,1,09,07,26,297,45,08,31,176,48,09,48,298,46,16,59,041,47,1*6E\r\n$GPGSV,3,2,09,23,66,225,50,27,54,133,51,46,41,204,00,48,20,242,00,1*67\r\n$GPGSV,3,3,09,51,36,216,00,,,,,,,,,,,,,1*59\r\n$GLGSV,2,1,07,67,22,211,44,68,41,273,46,69,19,327,41,77,48,045,41,1*7C\r\n$GLGSV,2,2,07,78,46,311,39,87,40,086,37,88,24,142,44,,,,,1*4B\r\n'
b'$GPRMC,203028.40,A,4006.8278922,N,08142.2902556,W,0.19,108.41,120317,0.0,E,D*20\r\n$GPGGA,203028.40,4006.8278922,N,08142.2902556,W,4,13,1.0,361.678,M,-34.312,M,0.4,*75\r\n'
b'$GPGSA,A,3,07,08,09,16,23,27,46,48,51,,,,2.8,1.3,2.5,1*2F\r\n$GLGSA,A,3,67,68,69,77,78,87,88,,,,,,2.7,1.0,2.6,2*30\r\n$GPGSV,3,1,09,07,26,297,45,08,31,176,47,09,48,298,47,16,59,041,46,1*61\r\n$GPGSV,3,2,09,23,66,225,50,27,54,133,51,46,41,204,00,48,20,242,00,1*67\r\n$GPGSV,3,3,09,51,36,216,00,,,,,,,,,,,,,1*59\r\n$GLGSV,2,1,07,67,22,211,45,68,41,273,46,69,19,327,41,77,48,045,41,1*7D\r\n$GLGSV,2,2,07,78,46,311,39,87,40,086,37,88,24,142,44,,,,,1*4B\r\n'
b'$GPRMC,203028.60,A,4006.8278925,N,08142.2902560,W,0.13,108.41,120317,0.0,E,D*2A\r\n$GPGGA,203028.60,4006.8278925,N,08142.2902560,W,4,13,1.0,361.673,M,-34.312,M,0.6,*7C\r\n'
b'$GPGSA,A,3,07,08,09,16,23,27,46,48,51,,,,2.8,1.3,2.5,1*2F\r\n$GLGSA,A,3,67,68,69,77,78,87,88,,,,,,2.7,1.0,2.6,2*30\r\n$GPGSV,3,1,09,07,26,297,43,08,31,176,47,09,48,298,47,16,59,041,46,1*67\r\n$GPGSV,3,2,09,23,66,225,50,27,54,133,52,46,41,204,00,48,20,242,00,1*64\r\n$GPGSV,3,3,09,51,36,216,00,,,,,,,,,,,,,1*59\r\n$GLGSV,2,1,07,67,22,211,45,68,41,273,46,69,19,327,40,77,48,045,41,1*7C\r\n$GLGSV,2,2,07,78,46,311,39,87,40,086,37,88,24,142,44,,,,,1*4B\r\n'
b'$GPRMC,203028.80,A,4006.8278918,N,08142.2902559,W,0.19,108.41,120317,0.0,E,D*2A\r\n$GPGGA,203028.80,4006.8278918,N,08142.2902559,W,4,13,1.0,361.675,M,-34.312,M,0.8,*7E\r\n'
b'$GPGSA,A,3,07,08,09,16,23,27,46,48,51,,,,2.8,1.3,2.5,1*2F\r\n$GLGSA,A,3,67,68,69,77,78,87,88,,,,,,2.7,1.0,2.6,2*30\r\n$GPGSV,3,1,09,07,26,297,44,08,31,176,48,09,48,298,47,16,59,041,46,1*6F\r\n$GPGSV,3,2,09,23,66,225,49,27,54,133,51,46,41,204,00,48,20,242,00,1*6F\r\n$GPGSV,3,3,09,51,36,216,00,,,,,,,,,,,,,1*59\r\n$GLGSV,2,1,07,67,22,211,43,68,41,273,45,69,19,327,38,77,48,045,40,1*77\r\n$GLGSV,2,2,07,78,46,311,39,87,40,086,37,88,24,142,45,,,,,1*4A\r\n'
b'$GPRMC,203029.00,A,4006.8278942,N,08142.2902529,W,0.12,108.41,120317,0.0,E,D*20\r\n$GPGGA,203029.00,4006.8278942,N,08142.2902529,W,4,13,1.0,361.655,M,-34.312,M,1.0,*74\r\n'
b'$GPGSA,A,3,07,08,09,16,23,27,46,48,51,,,,2.8,1.3,2.5,1*2F\r\n$GLGSA,A,3,67,68,69,77,78,87,88,,,,,,2.7,1.0,2.6,2*30\r\n$GPGSV,3,1,09,07,26,297,42,08,31,176,48,09,48,298,46,16,59,041,45,1*6B\r\n$GPGSV,3,2,09,23,66,225,49,27,54,133,52,46,41,204,00,48,20,242,00,1*6C\r\n$GPGSV,3,3,09,51,36,216,00,,,,,,,,,,,,,1*59\r\n$GLGSV,2,1,07,67,22,211,43,68,41,273,45,69,19,327,38,77,48,045,39,1*79\r\n$GLGSV,2,2,07,78,46,311,39,87,40,086,37,88,24,142,45,,,,,1*4A\r\n'
b'$GPRMC,203029.20,A,4006.8278940,N,08142.2902585,W,0.19,108.41,120317,0.0,E,D*2D\r\n$GPGGA,203029.20,4006.8278940,N,08142.2902585,W,4,13,1.0,361.668,M,-34.312,M,0.2,*7F\r\n'
b'$GPGSA,A,3,07,08,09,16,23,27,46,48,51,,,,2.8,1.3,2.5,1*2F\r\n$GLGSA,A,3,67,68,69,77,78,87,88,,,,,,2.7,1.0,2.6,2*30\r\n$GPGSV,3,1,09,07,26,297,44,08,31,176,48,09,48,298,46,16,59,041,45,1*6D\r\n$GPGSV,3,2,09,23,66,225,50,27,54,133,52,46,41,204,00,48,20,242,00,1*64\r\n$GPGSV,3,3,09,51,36,216,00,,,,,,,,,,,,,1*59\r\n$GLGSV,2,1,07,67,22,211,44,68,41,273,45,69,19,327,40,77,48,045,37,1*7F\r\n$GLGSV,2,2,07,78,46,311,39,87,40,086,37,88,24,142,45,,,,,1*4A\r\n'
b'$GPRMC,203029.40,A,4006.8278953,N,08142.2902580,W,0.11,108.41,120317,0.0,E,D*24\r\n$GPGGA,203029.40,4006.8278953,N,08142.2902580,W,4,13,1.0,361.665,M,-34.312,M,0.4,*75\r\n'
b'$GPGSA,A,3,07,08,09,16,23,27,46,48,51,,,,2.8,1.3,2.5,1*2F\r\n$GLGSA,A,3,67,68,69,77,78,87,88,,,,,,2.7,1.0,2.6,2*30\r\n$GPGSV,3,1,09,07,26,297,44,08,31,176,47,09,48,298,46,16,59,041,46,1*61\r\n$GPGSV,3,2,09,23,66,225,50,27,54,133,52,46,41,204,00,48,20,242,00,1*64\r\n$GPGSV,3,3,09,51,36,216,00,,,,,,,,,,,,,1*59\r\n$GLGSV,2,1,07,67,22,211,44,68,41,273,46,69,19,327,40,77,48,045,37,1*7C\r\n$GLGSV,2,2,07,78,46,311,39,87,40,086,37,88,24,142,45,,,,,1*4A\r\n'
b'$GPRMC,203029.60,A,4006.8278977,N,08142.2902575,W,0.14,108.41,120317,0.0,E,D*2F\r\n$GPGGA,203029.60,4006.8278977,N,08142.2902575,W,4,13,1.0,361.670,M,-34.312,M,0.6,*7D\r\n'
b'$GPGSA,A,3,07,08,09,16,23,27,46,48,51,,,,2.8,1.3,2.5,1*2F\r\n$GLGSA,A,3,67,68,69,77,78,87,88,,,,,,2.7,1.0,2.6,2*30\r\n$GPGSV,3,1,09,07,26,297,44,08,31,176,47,09,48,298,46,16,59,041,47,1*60\r\n$GPGSV,3,2,09,23,66,225,50,27,54,133,51,46,41,204,00,48,20,242,00,1*67\r\n$GPGSV,3,3,09,51,36,216,00,,,,,,,,,,,,,1*59\r\n$GLGSV,2,1,07,67,22,211,43,68,41,273,46,69,19,327,40,77,48,045,39,1*75\r\n$GLGSV,2,2,07,78,46,311,37,87,40,086,37,88,24,142,45,,,,,1*44\r\n'
b'$GPRMC,203029.80,A,4006.8278957,N,08142.2902561,W,0.28,108.41,120317,0.0,E,D*29\r\n$GPGGA,203029.80,4006.8278957,N,08142.2902561,W,4,13,1.0,361.667,M,-34.312,M,0.8,*7C\r\n'
b'$GPGSA,A,3,07,08,09,16,23,27,46,48,51,,,,2.8,1.3,2.5,1*2F\r\n$GLGSA,A,3,67,68,69,77,78,87,88,,,,,,2.7,1.0,2.6,2*30\r\n$GPGSV,3,1,09,07,26,297,45,08,31,176,48,09,48,298,47,16,59,041,49,1*61\r\n$GPGSV,3,2,09,23,66,225,50,27,54,133,52,46,41,204,00,48,20,242,00,1*64\r\n$GPGSV,3,3,09,51,36,216,00,,,,,,,,,,,,,1*59\r\n$GLGSV,2,1,07,67,22,211,46,68,41,273,46,69,19,327,39,77,48,045,39,1*7E\r\n$GLGSV,2,2,07,78,46,311,37,87,40,086,39,88,24,142,44,,,,,1*4B\r\n'
