b'$GPRMC,203011.20,A,4006.8280458,N,08142.2893559,W,0.15,93.45,120317,0.0,E,D*16\r\n$GPGGA,203011.20,4006.8280458,N,08142.2893559,W,4,13,1.0,361.461,M,-34.312,M,0.2,*74\r\n$GPGSA,A,3,07,08,09,16,23,27,46,48,51,,,,2.8,1.3,2.5,1*2F\r\n$GLGSA,A,3,67,68,69,77,78,87,88,,,,,,2.7,1.0,2.5,2*33\r\n$GPGSV,3,1,09,07,26,297,45,08,30,176,45,09,48,298,47,16,60,041,49,1*67\r\n$GPGSV,3,2,09,23,66,226,50,27,54,133,51,46,41,204,00,48,20,242,00,1*64\r\n$GPGSV,3,3,09,51,36,216,00,,,,,,,,,,,,,1*59\r\n$GLGSV,2,1,07,67,22,211,44,68,41,273,44,69,'
b'18,328,37,77,48,045,43,1*73\r\n$GLGSV,2,2,07,78,46,310,39,87,40,086,39,88,24,142,44,,,,,1*44\r\n'
b'$GPRMC,203011.40,A,4006.8280454,N,08142.2893558,W,0.04,93.45,120317,0.0,E,D*1D\r\n$GPGGA,203011.40,4006.8280454,N,08142.2893558,W,4,13,1.0,361.460,M,-34.312,M,0.4,*78\r\n'
b'$GPGSA,A,3,07,08,09,16,23,27,46,48,51,,,,2.8,1.3,2.5,1*2F\r\n$GLGSA,A,3,67,68,69,77,78,87,88,,,,,,2.7,1.0,2.5,2*33\r\n$GPGSV,3,1,09,07,26,297,45,08,30,176,45,09,48,298,47,16,60,041,49,1*67\r\n$GPGSV,3,2,09,23,66,226,50,27,54,133,51,46,41,204,00,48,20,242,00,1*64\r\n$GPGSV,3,3,09,51,36,216,00,,,,,,,,,,,,,1*59\r\n$GLGSV,2,1,07,67,22,211,44,68,41,273,44,69,18,328,37,77,48,045,43,1*73\r\n$GLGSV,2,2,07,78,46,310,39,87,40,086,39,88,24,142,44,,,,,1*44\r\n'
b'$GPRMC,203011.60,A,4006.8280453,N,08142.2893560,W,0.05,93.45,120317,0.0,E,D*12\r\n$GPGGA,203011.60,4006.8280453,N,08142.2893560,W,4,13,1.0,361.459,M,-34.312,M,0.6,*7E\r\n$GPGSA,A,3,07,08,09,16,23,27,46,48,51,,,,2.8,1.3,2.5,1*2F\r\n$GLGSA,A,3,67,68,69,77,78,87,88,,,,,,2.7,1.0,2.5,2*33\r\n$GPGSV,3,1,09,07,26,297,45,08,30,176,45,09,48,298,47,16,60,041,49,1*67\r\n$GPGSV,3,2,09,23,66,226,50,27,54,133,51,46,41,204,00,48,20,242,00,1*64\r\n$GPGSV,3,3,09,51,36,216,00,,,,,,,,,,,,,1*59\r\n$GLGSV,2,1,07,67,22,211,44,68,41,273,44,69,'
b'18,328,37,77,48,045,43,1*73\r\n$GLGSV,2,2,07,78,46,310,39,87,40,086,39,88,24,142,44,,,,,1*44\r\n'
b'$GPRMC,203011.80,A,4006.8280448,N,08142.2893566,W,0.13,93.45,120317,0.0,E,D*17\r\n$GPGGA,203011.80,4006.8280448,N,08142.2893566,W,4,13,1.0,361.463,M,-34.312,M,0.8,*7B\r\n'
b'$GPGSA,A,3,07,08,09,16,23,27,46,48,51,,,,2.8,1.3,2.5,1*2F\r\n$GLGSA,A,3,67,68,69,77,78,87,88,,,,,,2.7,1.0,2.5,2*33\r\n$GPGSV,3,1,09,07,26,297,45,08,30,176,45,09,48,298,47,16,60,041,49,1*67\r\n$GPGSV,3,2,09,23,66,226,50,27,54,133,51,46,41,204,00,48,20,242,00,1*64\r\n$GPGSV,3,3,09,51,36,216,00,,,,,,,,,,,,,1*59\r\n$GLGSV,2,1,07,67,22,211,44,68,41,273,44,69,18,327,37,77,48,045,43,1*7C\r\n$GLGSV,2,2,07,78,46,310,39,87,40,086,39,88,24,142,44,,,,,1*44\r\n'
b'$GPRMC,203012.00,A,4006.8280446,N,08142.2893565,W,0.08,93.45,120317,0.0,E,D*1B\r\n$GPGGA,203012.00,4006.8280446,N,08142.2893565,W,4,13,1.0,361.463,M,-34.312,M,1.0,*74\r\n'
b'$GPGSA,A,3,07,08,09,16,23,27,46,48,51,,,,2.8,1.3,2.5,1*2F\r\n$GLGSA,A,3,67,68,69,77,78,87,88,,,,,,2.7,1.0,2.5,2*33\r\n$GPGSV,3,1,09,07,26,297,45,08,31,176,45,09,48,298,47,16,60,041,49,1*66\r\n$GPGSV,3,2,09,23,66,226,50,27,54,133,51,46,41,204,00,48,20,242,00,1*64\r\n$GPGSV,3,3,09,51,36,216,00,,,,,,,,,,,,,1*59\r\n$GLGSV,2,1,07,67,22,211,44,68,41,273,44,69,18,327,37,77,48,045,43,1*7C\r\n$GLGSV,2,2,07,78,46,310,39,87,40,086,39,88,24,142,44,,,,,1*44\r\n'
b'$GPRMC,203012.20,A,4006.8280469,N,08142.2893557,W,0.21,93.45,120317,0.0,E,D*1E\r\n$GPGGA,203012.20,4006.8280469,N,08142.2893557,W,4,13,1.0,361.462,M,-34.312,M,0.2,*78\r\n'
b'$GPGSA,A,3,07,08,09,16,23,27,46,48,51,,,,2.8,1.3,2.5,1*2F\r\n$GLGSA,A,3,67,68,69,77,78,87,88,,,,,,2.7,1.0,2.5,2*33\r\n$GPGSV,3,1,09,07,26,297,45,08,31,176,45,09,48,298,47,16,60,041,49,1*66\r\n$GPGSV,3,2,09,23,66,226,50,27,54,133,51,46,41,204,00,48,20,242,00,1*64\r\n$GPGSV,3,3,09,51,36,216,00,,,,,,,,,,,,,1*59\r\n$GLGSV,2,1,07,67,22,211,44,68,41,273,44,69,18,327,37,77,48,045,43,1*7C\r\n$GLGSV,2,2,07,78,46,310,39,87,40,086,40,88,24,142,44,,,,,1*4A\r\n'
b'$GPRMC,203012.40,A,4006.8280463,N,08142.2893557,W,0.02,93.45,120317,0.0,E,D*13\r\n$GPGGA,203012.40,4006.8280463,N,08142.2893557,W,4,13,1.0,361.463,M,-34.312,M,0.4,*73\r\n$GPGSA,A,3,07,08,09,16,23,27,46,48,51,,,,2.8,1.3,2.5,1*2F\r\n$GLGSA,A,3,67,68,69,77,78,87,88,,,,,,2.7,1.0,2.5,2*33\r\n$GPGSV,3,1,09,07,26,297,45,08,31,176,45,09,48,298,48,16,60,041,49,1*69\r\n$GPGSV,3,2,09,23,66,226,50,27,54,133,51,46,41,204,00,48,20,242,00,1*64\r\n$GPGSV,3,3,09,51,36,216,00,,,,,,,,,,,,,1*59\r\n$GLGSV,2,1,07,67,22,211,44,68,41,273,44,69,'
b'18,327,37,77,48,045,43,1*7C\r\n$GLGSV,2,2,07,78,46,310,39,87,40,086,40,88,24,142,44,,,,,1*4A\r\n'
b'$GPRMC,203012.60,A,4006.8280462,N,08142.2893558,W,0.12,93.45,120317,0.0,E,D*1E\r\n$GPGGA,203012.60,4006.8280462,N,08142.2893558,W,4,13,1.0,361.462,M,-34.312,M,0.6,*7C\r\n'
b'$GPGSA,A,3,07,08,09,16,23,27,46,48,51,,,,2.8,1.3,2.5,1*2F\r\n$GLGSA,A,3,67,68,69,77,78,87,88,,,,,,2.7,1.0,2.5,2*33\r\n$GPGSV,3,1,09,07,26,297,45,08,31,176,45,09,48,298,48,16,60,041,49,1*69\r\n$GPGSV,3,2,09,23,66,226,50,27,54,133,51,46,41,204,00,48,20,242,00,1*64\r\n$GPGSV,3,3,09,51,36,216,00,,,,,,,,,,,,,1*59\r\n$GLGSV,2,1,07,67,22,211,44,68,41,273,44,69,18,327,37,77,48,045,43,1*7C\r\n$GLGSV,2,2,07,78,46,310,39,87,40,086,40,88,24,142,44,,,,,1*4A\r\n'
b'$GPRMC,203012.80,A,4006.8280461,N,08142.2893557,W,0.15,93.45,120317,0.0,E,D*1B\r\n$GPGGA,203012.80,4006.8280461,N,08142.2893557,W,4,13,1.0,361.462,M,-34.312,M,0.8,*70\r\n'
b'$GPGSA,A,3,07,08,09,16,23,27,46,48,51,,,,2.8,1.3,2.5,1*2F\r\n$GLGSA,A,3,67,68,69,77,78,87,88,,,,,,2.7,1.0,2.5,2*33\r\n$GPGSV,3,1,09,07,26,297,45,08,31,176,45,09,48,298,48,16,60,041,49,1*69\r\n$GPGSV,3,2,09,23,66,226,50,27,54,133,51,46,41,204,00,48,20,242,00,1*64\r\n$GPGSV,3,3,09,51,36,216,00,,,,,,,,,,,,,1*59\r\n$GLGSV,2,1,07,67,22,211,44,68,41,273,44,69,18,327,37,77,48,045,43,1*7C\r\n$GLGSV,2,2,07,78,46,310,39,87,40,086,40,88,24,142,44,,,,,1*4A\r\n'
b'$GPRMC,203013.00,A,4006.8280455,N,08142.2893563,W,0.05,93.45,120317,0.0,E,D*13\r\n$GPGGA,203013.00,4006.8280455,N,08142.2893563,W,4,13,1.0,361.463,M,-34.312,M,1.0,*71\r\n'
b'$GPGSA,A,3,07,08,09,16,23,27,46,48,51,,,,2.8,1.3,2.5,1*2F\r\n$GLGSA,A,3,67,68,69,77,78,87,88,,,,,,2.7,1.0,2.5,2*33\r\n$GPGSV,3,1,09,07,26,297,45,08,31,176,45,09,48,298,48,16,60,041,49,1*69\r\n$GPGSV,3,2,09,23,66,226,50,27,54,133,51,46,41,204,00,48,20,242,00,1*64\r\n$GPGSV,3,3,09,51,36,216,00,,,,,,,,,,,,,1*59\r\n$GLGSV,2,1,07,67,22,211,44,68,41,273,44,69,18,327,37,77,48,045,43,1*7C\r\n$GLGSV,2,2,07,78,46,310,39,87,40,086,40,88,24,142,44,,,,,1*4A\r\n'
b'$GPRMC,203013.20,A,4006.8280457,N,08142.2893567,W,0.03,93.45,120317,0.0,E,D*11\r\n$GPGGA,203013.20,4006.8280457,N,08142.2893567,W,4,13,1.0,361.461,M,-34.312,M,0.2,*74\r\n'
b'$GPGSA,A,3,07,08,09,16,23,27,46,48,51,,,,2.8,1.3,2.5,1*2F\r\n$GLGSA,A,3,67,68,69,77,78,87,88,,,,,,2.7,1.0,2.5,2*33\r\n$GPGSV,3,1,09,07,26,297,45,08,31,176,45,09,48,298,48,16,60,041,49,1*69\r\n$GPGSV,3,2,09,23,66,226,50,27,54,133,51,46,41,204,00,48,20,242,00,1*64\r\n$GPGSV,3,3,09,51,36,216,00,,,,,,,,,,,,,1*59\r\n$GLGSV,2,1,07,67,22,211,44,68,41,273,44,69,18,327,37,77,48,045,43,1*7C\r\n$GLGSV,2,2,07,78,46,310,39,87,40,086,40,88,24,142,44,,,,,1*4A\r\n'
b'$GPRMC,203013.40,A,4006.8280453,N,08142.2893573,W,0.10,93.45,120317,0.0,E,D*14\r\n$GPGGA,203013.40,4006.8280453,N,08142.2893573,W,4,13,1.0,361.461,M,-34.312,M,0.4,*75\r\n'
b'$GPGSA,A,3,07,08,09,16,23,27,46,48,51,,,,2.8,1.3,2.5,1*2F\r\n$GLGSA,A,3,67,68,69,77,78,87,88,,,,,,2.7,1.0,2.5,2*33\r\n$GPGSV,3,1,09,07,26,297,45,08,31,176,45,09,48,298,48,16,60,041,49,1*69\r\n$GPGSV,3,2,09,23,66,226,50,27,54,133,51,46,41,204,00,48,20,242,00,1*64\r\n$GPGSV,3,3,09,51,36,216,00,,,,,,,,,,,,,1*59\r\n$GLGSV,2,1,07,67,22,211,44,68,41,273,44,69,18,327,37,77,48,045,43,1*7C\r\n$GLGSV,2,2,07,78,46,310,39,87,40,086,40,88,24,142,44,,,,,1*4A\r\n'
b'$GPRMC,203013.60,A,4006.8280449,N,08142.2893571,W,0.06,93.45,120317,0.0,E,D*18\r\n$GPGGA,203013.60,4006.8280449,N,08142.2893571,W,4,13,1.0,361.462,M,-34.312,M,0.6,*7F\r\n'
b'$GPGSA,A,3,07,08,09,16,23,27,46,48,51,,,,2.8,1.3,2.5,1*2F\r\n$GLGSA,A,3,67,68,69,77,78,87,88,,,,,,2.7,1.0,2.5,2*33\r\n$GPGSV,3,1,09,07,26,297,45,08,31,176,45,09,48,298,48,16,60,041,49,1*69\r\n$GPGSV,3,2,09,23,66,226,50,27,54,133,51,46,41,204,00,48,20,242,00,1*64\r\n$GPGSV,3,3,09,51,36,216,00,,,,,,,,,,,,,1*59\r\n$GLGSV,2,1,07,67,22,211,44,68,41,273,44,69,18,327,37,77,48,045,43,1*7C\r\n$GLGSV,2,2,07,78,46,310,39,87,40,086,40,88,24,142,44,,,,,1*4A\r\n'
b'$GPRMC,203013.80,A,4006.8280447,N,08142.2893571,W,0.08,93.45,120317,0.0,E,D*16\r\n$GPGGA,203013.80,4006.8280447,N,08142.2893571,W,4,13,1.0,361.461,M,-34.312,M,0.8,*72\r\n'
b'$GPGSA,A,3,07,08,09,16,23,27,46,48,51,,,,2.8,1.3,2.5,1*2F\r\n$GLGSA,A,3,67,68,69,77,78,87,88,,,,,,2.7,1.0,2.5,2*33\r\n$GPGSV,3,1,09,07,26,297,45,08,31,176,45,09,48,298,48,16,60,041,49,1*69\r\n$GPGSV,3,2,09,23,66,226,50,27,54,133,51,46,41,204,00,48,20,242,00,1*64\r\n$GPGSV,3,3,09,51,36,216,00,,,,,,,,,,,,,1*59\r\n$GLGSV,2,1,07,67,22,211,44,68,41,273,44,69,18,327,37,77,48,045,43,1*7C\r\n$GLGSV,2,2,07,78,46,310,39,87,40,086,40,88,24,142,44,,,,,1*4A\r\n'
b'$GPRMC,203014.00,A,4006.8280447,N,08142.2893573,W,0.08,93.45,120317,0.0,E,D*1B\r\n$GPGGA,203014.00,4006.8280447,N,08142.2893573,W,4,13,1.0,361.461,M,-34.312,M,1.0,*76\r\n'
b'$GPGSA,A,3,07,08,09,16,23,27,46,48,51,,,,2.8,1.3,2.5,1*2F\r\n$GLGSA,A,3,67,68,69,77,78,87,88,,,,,,2.7,1.0,2.5,2*33\r\n$GPGSV,3,1,09,07,26,297,45,08,31,176,45,09,48,298,48,16,60,041,49,1*69\r\n$GPGSV,3,2,09,23,66,226,50,27,54,133,51,46,41,204,00,48,20,242,00,1*64\r\n$GPGSV,3,3,09,51,36,216,00,,,,,,,,,,,,,1*59\r\n$GLGSV,2,1,07,67,22,211,44,68,41,273,44,69,18,327,37,77,48,045,43,1*7C\r\n$GLGSV,2,2,07,78,46,310,39,87,40,086,40,88,24,142,44,,,,,1*4A\r\n'
b'$GPRMC,203014.20,A,4006.8280444,N,08142.2893560,W,0.09,93.45,120317,0.0,E,D*19\r\n$GPGGA,203014.20,4006.8280444,N,08142.2893560,W,4,13,1.0,361.461,M,-34.312,M,0.2,*76\r\n'
b'$GPGSA,A,3,07,08,09,16,23,27,46,48,51,,,,2.8,1.3,2.5,1*2F\r\n$GLGSA,A,3,67,68,69,77,78,87,88,,,,,,2.7,1.0,2.5,2*33\r\n$GPGSV,3,1,09,07,26,297,45,08,31,176,45,09,48,298,48,16,60,041,49,1*69\r\n$GPGSV,3,2,09,23,66,226,50,27,54,133,51,46,41,204,00,48,20,242,00,1*64\r\n$GPGSV,3,3,09,51,36,216,00,,,,,,,,,,,,,1*59\r\n$GLGSV,2,1,07,67,22,211,44,68,41,273,44,69,18,327,37,77,48,045,43,1*7C\r\n$GLGSV,2,2,07,78,46,310,39,87,40,086,40,88,24,142,44,,,,,1*4A\r\n'
b'$GPRMC,203014.40,A,4006.8280439,N,08142.2893565,W,0.07,93.45,120317,0.0,E,D*1E\r\n$GPGGA,203014.40,4006.8280439,N,08142.2893565,W,4,13,1.0,361.465,M,-34.312,M,0.4,*7D\r\n'
b'$GPGSA,A,3,07,08,09,16,23,27,46,48,51,,,,2.8,1.3,2.5,1*2F\r\n$GLGSA,A,3,67,68,69,77,78,87,88,,,,,,2.7,1.0,2.5,2*33\r\n$GPGSV,3,1,09,07,26,297,45,08,31,176,45,09,48,298,48,16,60,041,49,1*69\r\n$GPGSV,3,2,09,23,66,226,50,27,54,133,51,46,41,204,00,48,20,242,00,1*64\r\n$GPGSV,3,3,09,51,36,216,00,,,,,,,,,,,,,1*59\r\n$GLGSV,2,1,07,67,22,211,44,68,41,273,44,69,18,327,37,77,48,045,43,1*7C\r\n$GLGSV,2,2,07,78,46,310,39,87,40,086,40,88,24,142,44,,,,,1*4A\r\n'
b'$GPRMC,203014.60,A,4006.8280441,N,08142.2893566,W,0.14,93.45,120317,0.0,E,D*12\r\n$GPGGA,203014.60,4006.8280441,N,08142.2893566,W,4,13,1.0,361.462,M,-34.312,M,0.6,*76\r\n'
b'$GPGSA,A,3,07,08,09,16,23,27,46,48,51,,,,2.8,1.3,2.5,1*2F\r\n$GLGSA,A,3,67,68,69,77,78,87,88,,,,,,2.7,1.0,2.5,2*33\r\n$GPGSV,3,1,09,07,26,297,45,08,31,176,45,09,48,298,48,16,60,041,49,1*69\r\n$GPGSV,3,2,09,23,66,226,50,27,54,133,51,46,41,204,00,48,20,242,00,1*64\r\n$GPGSV,3,3,09,51,36,216,00,,,,,,,,,,,,,1*59\r\n$GLGSV,2,1,07,67,22,211,44,68,41,273,44,69,18,327,37,77,48,045,43,1*7C\r\n$GLGSV,2,2,07,78,46,310,39,87,40,086,40,88,24,142,44,,,,,1*4A\r\n'
b'$GPRMC,203014.80,A,4006.8280440,N,08142.2893572,W,0.04,93.45,120317,0.0,E,D*19\r\n$GPGGA,203014.80,4006.8280440,N,08142.2893572,W,4,13,1.0,361.463,M,-34.312,M,0.8,*73\r\n'
b'$GPGSA,A,3,07,08,09,16,23,27,46,48,51,,,,2.8,1.3,2.5,1*2F\r\n$GLGSA,A,3,67,68,69,77,78,87,88,,,,,,2.7,1.0,2.5,2*33\r\n$GPGSV,3,1,09,07,26,297,45,08,31,176,45,09,48,298,48,16,60,041,49,1*69\r\n$GPGSV,3,2,09,23,66,226,50,27,54,133,51,46,41,204,00,48,20,242,00,1*64\r\n$GPGSV,3,3,09,51,36,216,00,,,,,,,,,,,,,1*59\r\n$GLGSV,2,1,07,67,22,211,44,68,41,273,44,69,18,327,37,77,48,045,43,1*7C\r\n$GLGSV,2,2,07,78,46,310,39,87,40,086,40,88,24,142,44,,,,,1*4A\r\n'
b'$GPRMC,203015.00,A,4006.8280436,N,08142.2893564,W,0.05,93.45,120317,0.0,E,D*17\r\n$GPGGA,203015.00,4006.8280436,N,08142.2893564,W,4,13,1.0,361.464,M,-34.312,M,1.0,*72\r\n'
b'$GPGSA,A,3,07,08,09,16,23,27,46,48,51,,,,2.8,1.3,2.5,1*2F\r\n$GLGSA,A,3,67,68,69,77,78,87,88,,,,,,2.7,1.0,2.5,2*33\r\n$GPGSV,3,1,09,07,26,297,45,08,31,176,45,09,48,298,48,16,60,041,49,1*69\r\n$GPGSV,3,2,09,23,66,226,50,27,54,133,51,46,41,204,00,48,20,242,00,1*64\r\n$GPGSV,3,3,09,51,36,216,00,,,,,,,,,,,,,1*59\r\n$GLGSV,2,1,07,67,22,211,44,68,41,273,44,69,18,327,37,77,48,045,43,1*7C\r\n$GLGSV,2,2,07,78,46,310,39,87,40,086,40,88,24,142,44,,,,,1*4A\r\n'
b'$GPRMC,203015.20,A,4006.8280454,N,08142.2893554,W,0.05,93.45,120317,0.0,E,D*12\r\n$GPGGA,203015.20,4006.8280454,N,08142.2893554,W,4,13,1.0,361.462,M,-34.312,M,0.2,*72\r\n'
b'$GPGSA,A,3,07,08,09,16,23,27,46,48,51,,,,2.8,1.3,2.5,1*2F\r\n$GLGSA,A,3,67,68,69,77,78,87,88,,,,,,2.7,1.0,2.5,2*33\r\n$GPGSV,3,1,09,07,26,297,45,08,31,176,45,09,48,298,48,16,60,041,49,1*69\r\n$GPGSV,3,2,09,23,66,226,50,27,54,133,51,46,41,204,00,48,20,242,00,1*64\r\n$GPGSV,3,3,09,51,36,216,00,,,,,,,,,,,,,1*59\r\n$GLGSV,2,1,07,67,22,211,44,68,41,273,44,69,18,327,37,77,48,045,43,1*7C\r\n$GLGSV,2,2,07,78,46,310,39,87,40,086,39,88,24,142,44,,,,,1*44\r\n'
b'$GPRMC,203015.40,A,4006.8280454,N,08142.2893549,W,0.08,93.45,120317,0.0,E,D*15\r\n$GPGGA,203015.40,4006.8280454,N,08142.2893549,W,4,13,1.0,361.461,M,-34.312,M,0.4,*7D\r\n'
b'$GPGSA,A,3,07,08,09,16,23,27,46,48,51,,,,2.8,1.3,2.5,1*2F\r\n$GLGSA,A,3,67,68,69,77,78,87,88,,,,,,2.7,1.0,2.5,2*33\r\n$GPGSV,3,1,09,07,26,297,45,08,31,176,45,09,48,298,48,16,60,041,49,1*69\r\n$GPGSV,3,2,09,23,66,226,50,27,54,133,51,46,41,204,00,48,20,242,00,1*64\r\n$GPGSV,3,3,09,51,36,216,00,,,,,,,,,,,,,1*59\r\n$GLGSV,2,1,07,67,22,211,44,68,41,273,44,69,18,327,37,77,48,045,43,1*7C\r\n$GLGSV,2,2,07,78,46,310,39,87,40,086,39,88,24,142,44,,,,,1*44\r\n'
b'$GPRMC,203015.60,A,4006.8280445,N,08142.2893548,W,0.06,93.45,120317,0.0,E,D*18\r\n$GPGGA,203015.60,4006.8280445,N,08142.2893548,W,4,13,1.0,361.457,M,-34.312,M,0.6,*79\r\n'
b'$GPGSA,A,3,07,08,09,16,23,27,46,48,51,,,,2.8,1.3,2.5,1*2F\r\n$GLGSA,A,3,67,68,69,77,78,87,88,,,,,,2.7,1.0,2.5,2*33\r\n$GPGSV,3,1,09,07,26,297,45,08,31,176,45,09,48,298,48,16,60,041,49,1*69\r\n$GPGSV,3,2,09,23,66,226,50,27,54,133,51,46,41,204,00,48,20,242,00,1*64\r\n$GPGSV,3,3,09,51,36,216,00,,,,,,,,,,,,,1*59\r\n$GLGSV,2,1,07,67,22,211,44,68,41,273,44,69,18,327,37,77,48,045,43,1*7C\r\n$GLGSV,2,2,07,78,46,310,39,87,40,086,39,88,24,142,44,,,,,1*44\r\n'
b'$GPRMC,203015.80,A,4006.8280451,N,08142.2893542,W,0.08,93.45,120317,0.0,E,D*17\r\n$GPGGA,203015.80,4006.8280451,N,08142.2893542,W,4,13,1.0,361.458,M,-34.312,M,0.8,*79\r\n'
b'$GPGSA,A,3,07,08,09,16,23,27,46,48,51,,,,2.8,1.3,2.5,1*2F\r\n$GLGSA,A,3,67,68,69,77,78,87,88,,,,,,2.7,1.0,2.5,2*33\r\n$GPGSV,3,1,09,07,26,297,45,08,31,176,45,09,48,298,48,16,60,041,49,1*69\r\n$GPGSV,3,2,09,23,66,226,50,27,54,133,51,46,41,204,00,48,20,242,00,1*64\r\n$GPGSV,3,3,09,51,36,216,00,,,,,,,,,,,,,1*59\r\n$GLGSV,2,1,07,67,22,211,44,68,41,273,44,69,18,327,37,77,48,045,43,1*7C\r\n$GLGSV,2,2,07,78,46,310,39,87,40,086,39,88,24,142,44,,,,,1*44\r\n'
b'$GPRMC,203016.00,A,4006.8280451,N,08142.2893551,W,0.03,93.45,120317,0.0,E,D*15\r\n$GPGGA,203016.00,4006.8280451,N,08142.2893551,W,4,13,1.0,361.461,M,-34.312,M,1.0,*73\r\n'
b'$GPGSA,A,3,07,08,09,16,23,27,46,48,51,,,,2.8,1.3,2.5,1*2F\r\n$GLGSA,A,3,67,68,69,77,78,87,88,,,,,,2.7,1.0,2.5,2*33\r\n$GPGSV,3,1,09,07,26,297,45,08,31,176,45,09,48,298,48,16,60,041,49,1*69\r\n$GPGSV,3,2,09,23,66,226,50,27,54,133,51,46,41,204,00,48,20,242,00,1*64\r\n$GPGSV,3,3,09,51,36,216,00,,,,,,,,,,,,,1*59\r\n$GLGSV,2,1,07,67,22,211,44,68,41,273,44,69,18,327,37,77,48,045,43,1*7C\r\n$GLGSV,2,2,07,78,46,310,39,87,40,086,39,88,24,142,44,,,,,1*44\r\n'
b'$GPRMC,203016.20,A,4006.8280451,N,08142.2893545,W,0.05,93.45,120317,0.0,E,D*14\r\n$GPGGA,203016.20,4006.8280451,N,08142.2893545,W,4,13,1.0,361.459,M,-34.312,M,0.2,*7C\r\n'
b'$GPGSA,A,3,07,08,09,16,23,27,46,48,51,,,,2.8,1.3,2.5,1*2F\r\n$GLGSA,A,3,67,68,69,77,78,87,88,,,,,,2.7,1.0,2.5,2*33\r\n$GPGSV,3,1,09,07,26,297,45,08,31,176,45,09,48,298,48,16,60,041,49,1*69\r\n$GPGSV,3,2,09,23,66,226,50,27,54,133,51,46,41,204,00,48,20,242,00,1*64\r\n$GPGSV,3,3,09,51,36,216,00,,,,,,,,,,,,,1*59\r\n$GLGSV,2,1,07,67,22,211,44,68,41,273,44,69,18,327,37,77,48,045,43,1*7C\r\n$GLGSV,2,2,07,78,46,310,39,87,40,086,39,88,24,142,44,,,,,1*44\r\n'
b'$GPRMC,203016.40,A,4006.8280456,N,08142.2893550,W,0.09,93.45,120317,0.0,E,D*1D\r\n$GPGGA,203016.40,4006.8280456,N,08142.2893550,W,4,13,1.0,361.459,M,-34.312,M,0.4,*7F\r\n'
b'$GPGSA,A,3,07,08,09,16,23,27,46,48,51,,,,2.8,1.3,2.5,1*2F\r\n$GLGSA,A,3,67,68,69,77,78,87,88,,,,,,2.7,1.0,2.5,2*33\r\n$GPGSV,3,1,09,07,26,297,45,08,31,176,45,09,48,298,48,16,60,041,49,1*69\r\n$GPGSV,3,2,09,23,66,226,50,27,54,133,51,46,41,204,00,48,20,242,00,1*64\r\n$GPGSV,3,3,09,51,36,216,00,,,,,,,,,,,,,1*59\r\n$GLGSV,2,1,07,67,22,211,44,68,41,273,44,69,18,327,37,77,48,045,43,1*7C\r\n$GLGSV,2,2,07,78,46,310,39,87,40,086,39,88,24,142,44,,,,,1*44\r\n'
b'$GPRMC,203016.60,A,4006.8280455,N,08142.2893546,W,0.08,93.45,120317,0.0,E,D*1A\r\n$GPGGA,203016.60,4006.8280455,N,08142.2893546,W,4,13,1.0,361.456,M,-34.312,M,0.6,*74\r\n'
b'$GPGSA,A,3,07,08,09,16,23,27,46,48,51,,,,2.8,1.3,2.5,1*2F\r\n$GLGSA,A,3,67,68,69,77,78,87,88,,,,,,2.7,1.0,2.5,2*33\r\n$GPGSV,3,1,09,07,26,297,45,08,31,176,45,09,48,298,48,16,60,041,49,1*69\r\n$GPGSV,3,2,09,23,66,226,50,27,54,133,51,46,41,204,00,48,20,242,00,1*64\r\n$GPGSV,3,3,09,51,36,216,00,,,,,,,,,,,,,1*59\r\n$GLGSV,2,1,07,67,22,211,44,68,41,273,44,69,18,327,37,77,48,045,43,1*7C\r\n$GLGSV,2,2,07,78,46,310,39,87,40,086,39,88,24,142,44,,,,,1*44\r\n'
b'$GPRMC,203016.80,A,4006.8280458,N,08142.2893537,W,0.08,93.45,120317,0.0,E,D*1F\r\n$GPGGA,203016.80,4006.8280458,N,08142.2893537,W,4,13,1.0,361.455,M,-34.312,M,0.8,*7C\r\n'
b'$GPGSA,A,3,07,08,09,16,23,27,46,48,51,,,,2.8,1.3,2.5,1*2F\r\n$GLGSA,A,3,67,68,69,77,78,87,88,,,,,,2.7,1.0,2.5,2*33\r\n$GPGSV,3,1,09,07,26,297,45,08,31,176,45,09,48,298,48,16,60,041,49,1*69\r\n$GPGSV,3,2,09,23,66,226,50,27,54,133,51,46,41,204,00,48,20,242,00,1*64\r\n$GPGSV,3,3,09,51,36,216,00,,,,,,,,,,,,,1*59\r\n$GLGSV,2,1,07,67,22,211,44,68,41,273,44,69,18,327,37,77,48,045,43,1*7C\r\n$GLGSV,2,2,07,78,46,310,39,87,40,086,39,88,24,142,44,,,,,1*44\r\n'
b'$GPRMC,203017.00,A,4006.8280454,N,08142.2893542,W,0.04,93.45,120317,0.0,E,D*14\r\n$GPGGA,203017.00,4006.8280454,N,08142.2893542,W,4,13,1.0,361.457,M,-34.312,M,1.0,*70\r\n'
b'$GPGSA,A,3,07,08,09,16,23,27,46,48,51,,,,2.8,1.3,2.5,1*2F\r\n$GLGSA,A,3,67,68,69,77,78,87,88,,,,,,2.7,1.0,2.5,2*33\r\n$GPGSV,3,1,09,07,26,297,45,08,31,176,45,09,48,298,48,16,60,041,49,1*69\r\n$GPGSV,3,2,09,23,66,226,50,27,54,133,51,46,41,204,00,48,20,242,00,1*64\r\n$GPGSV,3,3,09,51,36,216,00,,,,,,,,,,,,,1*59\r\n$GLGSV,2,1,07,67,22,211,44,68,41,273,44,69,18,327,37,77,48,045,43,1*7C\r\n$GLGSV,2,2,07,78,46,310,39,87,40,086,39,88,24,142,44,,,,,1*44\r\n'
b'$GPRMC,203017.20,A,4006.8280454,N,08142.2893559,W,0.02,93.45,120317,0.0,E,D*1A\r\n$GPGGA,203017.20,4006.8280454,N,08142.2893559,W,4,13,1.0,361.460,M,-34.312,M,0.2,*7F\r\n'
b'$GPGSA,A,3,07,08,09,16,23,27,46,48,51,,,,2.8,1.3,2.5,1*2F\r\n$GLGSA,A,3,67,68,69,77,78,87,88,,,,,,2.7,1.0,2.5,2*33\r\n$GPGSV,3,1,09,07,26,297,45,08,31,176,45,09,48,298,48,16,60,041,49,1*69\r\n$GPGSV,3,2,09,23,66,226,50,27,54,133,51,46,41,204,00,48,20,242,00,1*64\r\n$GPGSV,3,3,09,51,36,216,00,,,,,,,,,,,,,1*59\r\n$GLGSV,2,1,07,67,22,211,44,68,41,273,44,69,18,327,37,77,48,045,43,1*7C\r\n$GLGSV,2,2,07,78,46,310,39,87,40,086,39,88,24,142,44,,,,,1*44\r\n'
b'$GPRMC,203017.40,A,4006.8280457,N,08142.2893558,W,0.05,93.45,120317,0.0,E,D*19\r\n$GPGGA,203017.40,4006.8280457,N,08142.2893558,W,4,13,1.0,361.462,M,-34.312,M,0.4,*7F\r\n'
b'$GPGSA,A,3,07,08,09,16,23,27,46,48,51,,,,2.8,1.3,2.5,1*2F\r\n$GLGSA,A,3,67,68,69,77,78,87,88,,,,,,2.7,1.0,2.5,2*33\r\n$GPGSV,3,1,09,07,26,297,45,08,31,176,46,09,48,298,48,16,60,041,49,1*6A\r\n$GPGSV,3,2,09,23,66,226,50,27,54,133,51,46,41,204,00,48,20,242,00,1*64\r\n$GPGSV,3,3,09,51,36,216,00,,,,,,,,,,,,,1*59\r\n$GLGSV,2,1,07,67,22,211,44,68,41,273,44,69,18,327,37,77,48,045,43,1*7C\r\n$GLGSV,2,2,07,78,46,310,39,87,40,086,39,88,24,142,44,,,,,1*44\r\n'
b'$GPRMC,203017.60,A,4006.8280456,N,08142.2893553,W,0.11,93.45,120317,0.0,E,D*14\r\n$GPGGA,203017.60,4006.8280456,N,08142.2893553,W,4,13,1.0,361.462,M,-34.312,M,0.6,*75\r\n'
b'$GPGSA,A,3,07,08,09,16,23,27,46,48,51,,,,2.8,1.3,2.5,1*2F\r\n$GLGSA,A,3,67,68,69,77,78,87,88,,,,,,2.7,1.0,2.5,2*33\r\n$GPGSV,3,1,09,07,26,297,45,08,31,176,46,09,48,298,48,16,60,041,49,1*6A\r\n$GPGSV,3,2,09,23,66,226,50,27,54,133,51,46,41,204,00,48,20,242,00,1*64\r\n$GPGSV,3,3,09,51,36,216,00,,,,,,,,,,,,,1*59\r\n$GLGSV,2,1,07,67,22,211,44,68,41,273,44,69,18,327,37,77,48,045,43,1*7C\r\n$GLGSV,2,2,07,78,46,310,39,87,40,086,39,88,24,142,44,,,,,1*44\r\n'
b'$GPRMC,203017.80,A,4006.8280456,N,08142.2893552,W,0.04,93.45,120317,0.0,E,D*1F\r\n$GPGGA,203017.80,4006.8280456,N,08142.2893552,W,4,14,1.0,361.462,M,-34.312,M,0.8,*73\r\n'
b'$GPGSA,A,3,07,08,09,16,23,26,27,46,48,51,,,2.1,0.9,1.9,1*26\r\n$GLGSA,A,3,67,68,69,77,78,87,88,,,,,,2.7,1.0,2.5,2*33\r\n$GPGSV,3,1,10,07,26,297,45,08,31,176,46,09,48,298,48,16,60,041,49,1*62\r\n$GPGSV,3,2,10,23,66,226,50,26,32,054,35,27,54,133,51,46,41,204,00,1*64\r\n$GPGSV,3,3,10,48,20,242,00,51,36,216,00,,,,,,,,,1*6B\r\n$GLGSV,2,1,07,67,22,211,44,68,41,273,44,69,18,327,37,77,48,045,43,1*7C\r\n$GLGSV,2,2,07,78,46,310,40,87,40,086,39,88,24,142,44,,,,,1*4A\r\n'
b'$GPRMC,203018.00,A,4006.8280456,N,08142.2893549,W,0.10,93.45,120317,0.0,E,D*17\r\n$GPGGA,203018.00,4006.8280456,N,08142.2893549,W,4,14,1.0,361.464,M,-34.312,M,1.0,*71\r\n'
b'$GPGSA,A,3,07,08,09,16,23,26,27,46,48,51,,,2.1,0.9,1.9,1*26\r\n$GLGSA,A,3,67,68,69,77,78,87,88,,,,,,2.7,1.0,2.5,2*33\r\n$GPGSV,3,1,10,07,26,297,45,08,31,176,46,09,48,298,48,16,60,041,49,1*62\r\n$GPGSV,3,2,10,23,66,226,50,26,32,054,35,27,54,133,51,46,41,204,00,1*64\r\n$GPGSV,3,3,10,48,20,242,00,51,36,216,00,,,,,,,,,1*6B\r\n$GLGSV,2,1,07,67,22,211,44,68,41,273,44,69,18,327,37,77,48,045,43,1*7C\r\n$GLGSV,2,2,07,78,46,310,40,87,40,086,39,88,24,142,44,,,,,1*4A\r\n'
b'$GPRMC,203018.20,A,4006.8280456,N,08142.2893560,W,0.03,93.45,120317,0.0,E,D*1C\r\n$GPGGA,203018.20,4006.8280456,N,08142.2893560,W,4,13,1.0,361.463,M,-34.312,M,0.2,*7B\r\n'
b'$GPGSA,A,3,07,08,09,16,23,27,46,48,51,,,,2.8,1.3,2.5,1*2F\r\n$GLGSA,A,3,67,68,69,77,78,87,88,,,,,,2.7,1.0,2.5,2*33\r\n$GPGSV,3,1,09,07,26,297,45,08,31,176,46,09,48,298,48,16,60,041,49,1*6A\r\n$GPGSV,3,2,09,23,66,226,50,27,54,133,51,46,41,204,00,48,20,242,00,1*64\r\n$GPGSV,3,3,09,51,36,216,00,,,,,,,,,,,,,1*59\r\n$GLGSV,2,1,07,67,22,211,44,68,41,273,44,69,18,327,37,77,48,045,43,1*7C\r\n$GLGSV,2,2,07,78,46,310,40,87,40,086,39,88,24,142,44,,,,,1*4A\r\n'
b'$GPRMC,203018.40,A,4006.8280454,N,08142.2893556,W,0.05,93.45,120317,0.0,E,D*1B\r\n$GPGGA,203018.40,4006.8280454,N,08142.2893556,W,4,13,1.0,361.462,M,-34.312,M,0.4,*7D\r\n'
b'$GPGSA,A,3,07,08,09,16,23,27,46,48,51,,,,2.8,1.3,2.5,1*2F\r\n$GLGSA,A,3,67,68,69,77,78,87,88,,,,,,2.7,1.0,2.5,2*33\r\n$GPGSV,3,1,09,07,26,297,45,08,31,176,46,09,48,298,48,16,60,041,49,1*6A\r\n$GPGSV,3,2,09,23,66,226,50,27,54,133,51,46,41,204,00,48,20,242,00,1*64\r\n$GPGSV,3,3,09,51,36,216,00,,,,,,,,,,,,,1*59\r\n$GLGSV,2,1,07,67,22,211,44,68,41,273,44,69,18,327,37,77,48,045,43,1*7C\r\n$GLGSV,2,2,07,78,46,310,40,87,40,086,39,88,24,142,44,,,,,1*4A\r\n'
b'$GPRMC,203018.60,A,4006.8280459,N,08142.2893558,W,0.15,93.45,120317,0.0,E,D*1B\r\n$GPGGA,203018.60,4006.8280459,N,08142.2893558,W,4,13,1.0,361.464,M,-34.312,M,0.6,*78\r\n'
b'$GPGSA,A,3,07,08,09,16,23,27,46,48,51,,,,2.8,1.3,2.5,1*2F\r\n$GLGSA,A,3,67,68,69,77,78,87,88,,,,,,2.7,1.0,2.5,2*33\r\n$GPGSV,3,1,09,07,26,297,45,08,31,176,46,09,48,298,48,16,60,041,49,1*6A\r\n$GPGSV,3,2,09,23,66,226,50,27,54,133,51,46,41,204,00,48,20,242,00,1*64\r\n$GPGSV,3,3,09,51,36,216,00,,,,,,,,,,,,,1*59\r\n$GLGSV,2,1,07,67,22,211,44,68,41,273,44,69,18,327,37,77,48,045,43,1*7C\r\n$GLGSV,2,2,07,78,46,310,40,87,40,086,39,88,24,142,44,,,,,1*4A\r\n'
b'$GPRMC,203018.80,A,4006.8280459,N,08142.2893555,W,0.07,93.45,120317,0.0,E,D*1B\r\n$GPGGA,203018.80,4006.8280459,N,08142.2893555,W,4,13,1.0,361.464,M,-34.312,M,0.8,*75\r\n'
b'$GPGSA,A,3,07,08,09,16,23,27,46,48,51,,,,2.8,1.3,2.5,1*2F\r\n$GLGSA,A,3,67,68,69,77,78,87,88,,,,,,2.7,1.0,2.5,2*33\r\n$GPGSV,3,1,09,07,26,297,45,08,31,176,45,09,48,298,48,16,60,041,49,1*69\r\n$GPGSV,3,2,09,23,66,226,49,27,54,133,51,46,41,204,00,48,20,242,00,1*6C\r\n$GPGSV,3,3,09,51,36,216,00,,,,,,,,,,,,,1*59\r\n$GLGSV,2,1,07,67,22,211,44,68,41,273,44,69,18,327,37,77,48,045,43,1*7C\r\n$GLGSV,2,2,07,78,46,310,40,87,40,086,39,88,24,142,44,,,,,1*4A\r\n'
b'$GPRMC,203019.00,A,4006.8280451,N,08142.2893562,W,0.02,93.45,120317,0.0,E,D*1B\r\n$GPGGA,203019.00,4006.8280451,N,08142.2893562,W,4,13,1.0,361.465,M,-34.312,M,1.0,*78\r\n'
b'$GPGSA,A,3,07,08,09,16,23,27,46,48,51,,,,2.8,1.3,2.5,1*2F\r\n$GLGSA,A,3,67,68,69,77,78,87,88,,,,,,2.7,1.0,2.5,2*33\r\n$GPGSV,3,1,09,07,26,297,44,08,31,176,45,09,48,298,47,16,60,041,49,1*67\r\n$GPGSV,3,2,09,23,66,226,49,27,54,133,50,46,41,204,00,48,20,242,00,1*6D\r\n$GPGSV,3,3,09,51,36,216,00,,,,,,,,,,,,,1*59\r\n$GLGSV,2,1,07,67,22,211,44,68,41,273,44,69,18,327,37,77,48,045,43,1*7C\r\n$GLGSV,2,2,07,78,46,310,40,87,40,086,39,88,24,142,44,,,,,1*4A\r\n'
b'$GPRMC,203019.20,A,4006.8280443,N,08142.2893557,W,0.09,93.45,120317,0.0,E,D*17\r\n$GPGGA,203019.20,4006.8280443,N,08142.2893557,W,4,13,1.0,361.461,M,-34.312,M,0.2,*78\r\n'
b'$GPGSA,A,3,07,08,09,16,23,27,46,48,51,,,,2.8,1.3,2.5,1*2F\r\n$GLGSA,A,3,67,68,69,77,78,87,88,,,,,,2.7,1.0,2.5,2*33\r\n$GPGSV,3,1,09,07,26,297,45,08,31,176,45,09,48,298,47,16,60,041,49,1*66\r\n$GPGSV,3,2,09,23,66,225,49,27,54,133,51,46,41,204,00,48,20,242,00,1*6F\r\n$GPGSV,3,3,09,51,36,216,00,,,,,,,,,,,,,1*59\r\n$GLGSV,2,1,07,67,22,211,44,68,41,273,44,69,18,327,37,77,48,045,43,1*7C\r\n$GLGSV,2,2,07,78,46,310,40,87,40,086,39,88,24,142,44,,,,,1*4A\r\n'
b'$GPRMC,203019.40,A,4006.8280444,N,08142.2893559,W,0.06,93.45,120317,0.0,E,D*17\r\n$GPGGA,203019.40,4006.8280444,N,08142.2893559,W,4,13,1.0,361.462,M,-34.312,M,0.4,*72\r\n'
b'$GPGSA,A,3,07,08,09,16,23,27,46,48,51,,,,2.8,1.3,2.5,1*2F\r\n$GLGSA,A,3,67,68,69,77,78,87,88,,,,,,2.7,1.0,2.5,2*33\r\n$GPGSV,3,1,09,07,26,297,45,08,31,176,46,09,48,298,48,16,60,041,49,1*6A\r\n$GPGSV,3,2,09,23,66,225,49,27,54,133,51,46,41,204,00,48,20,242,00,1*6F\r\n$GPGSV,3,3,09,51,36,216,00,,,,,,,,,,,,,1*59\r\n$GLGSV,2,1,07,67,22,211,44,68,41,273,44,69,18,327,37,77,48,045,43,1*7C\r\n$GLGSV,2,2,07,78,46,310,40,87,40,086,39,88,24,142,44,,,,,1*4A\r\n'
b'$GPRMC,203019.60,A,4006.8280445,N,08142.2893555,W,0.04,93.45,120317,0.0,E,D*1A\r\n$GPGGA,203019.60,4006.8280445,N,08142.2893555,W,4,13,1.0,361.459,M,-34.312,M,0.6,*77\r\n'
b'$GPGSA,A,3,07,08,09,16,23,27,46,48,51,,,,2.8,1.3,2.5,1*2F\r\n$GLGSA,A,3,67,68,69,77,78,87,88,,,,,,2.7,1.0,2.5,2*33\r\n$GPGSV,3,1,09,07,26,297,45,08,31,176,46,09,48,298,48,16,60,041,49,1*6A\r\n$GPGSV,3,2,09,23,66,225,49,27,54,133,51,46,41,204,00,48,20,242,00,1*6F\r\n$GPGSV,3,3,09,51,36,216,00,,,,,,,,,,,,,1*59\r\n$GLGSV,2,1,07,67,22,211,44,68,41,273,44,69,18,327,37,77,48,045,43,1*7C\r\n$GLGSV,2,2,07,78,46,310,40,87,40,086,39,88,24,142,44,,,,,1*4A\r\n'
b'$GPRMC,203019.80,A,4006.8280447,N,08142.2893562,W,0.05,93.45,120317,0.0,E,D*13\r\n$GPGGA,203019.80,4006.8280447,N,08142.2893562,W,4,13,1.0,361.463,M,-34.312,M,0.8,*78\r\n$GPGSA,A,3,07,08,09,16,23,27,46,48,51,,,,2.8,1.3,2.5,1*2F\r\n$GLGSA,A,3,67,68,69,77,78,87,88,,,,,,2.7,1.0,2.5,2*33\r\n$GPGSV,3,1,09,07,26,297,45,08,31,176,46,09,48,298,48,16,60,041,49,1*6A\r\n$GPGSV,3,2,09,23,66,225,49,27,54,133,51,46,41,204,00,48,20,242,00,1*6F\r\n$GPGSV,3,3,09,51,36,216,00,,,,,,,,,,,,,1*59\r\n$GLGSV,2,1,07,67,22,211,44,68,41,273,44,69,'
b'18,327,37,77,48,045,43,1*7C\r\n$GLGSV,2,2,07,78,46,310,40,87,40,086,38,88,24,142,44,,,,,1*4B\r\n'
b'$GPRMC,203020.00,A,4006.8280449,N,08142.2893553,W,0.08,93.45,120317,0.0,E,D*10\r\n$GPGGA,203020.00,4006.8280449,N,08142.2893553,W,4,14,1.0,361.463,M,-34.312,M,1.0,*78\r\n'
b'$GPGSA,A,3,07,08,09,16,23,26,27,46,48,51,,,2.1,0.9,1.9,1*26\r\n$GLGSA,A,3,67,68,69,77,78,87,88,,,,,,2.7,1.0,2.5,2*33\r\n$GPGSV,3,1,10,07,26,297,45,08,31,176,46,09,48,298,48,16,60,041,49,1*62\r\n$GPGSV,3,2,10,23,66,225,49,26,32,054,35,27,54,133,51,46,41,204,00,1*6F\r\n$GPGSV,3,3,10,48,20,242,00,51,36,216,00,,,,,,,,,1*6B\r\n$GLGSV,2,1,07,67,22,211,44,68,41,273,44,69,18,327,37,77,48,045,43,1*7C\r\n$GLGSV,2,2,07,78,46,310,40,87,40,086,38,88,24,142,44,,,,,1*4B\r\n'
b'$GPRMC,203020.20,A,4006.8280459,N,08142.2893565,W,0.09,93.45,120317,0.0,E,D*17\r\n$GPGGA,203020.20,4006.8280459,N,08142.2893565,W,4,14,1.0,361.463,M,-34.312,M,0.2,*7D\r\n'
b'$GPGSA,A,3,07,08,09,16,23,26,27,46,48,51,,,2.1,0.9,1.9,1*26\r\n$GLGSA,A,3,67,68,69,77,78,87,88,,,,,,2.7,1.0,2.5,2*33\r\n$GPGSV,3,1,10,07,26,297,45,08,31,176,46,09,48,298,48,16,60,041,49,1*62\r\n$GPGSV,3,2,10,23,66,225,49,26,32,054,35,27,54,133,51,46,41,204,00,1*6F\r\n$GPGSV,3,3,10,48,20,242,00,51,36,216,00,,,,,,,,,1*6B\r\n$GLGSV,2,1,07,67,22,211,44,68,41,273,44,69,18,327,37,77,48,045,43,1*7C\r\n$GLGSV,2,2,07,78,46,310,40,87,40,086,38,88,24,142,44,,,,,1*4B\r\n'
b'$GPRMC,203020.40,A,4006.8280454,N,08142.2893568,W,0.11,93.45,120317,0.0,E,D*18\r\n$GPGGA,203020.40,4006.8280454,N,08142.2893568,W,4,13,1.0,361.466,M,-34.312,M,0.4,*7F\r\n'
b'$GPGSA,A,3,07,08,09,16,23,27,46,48,51,,,,2.8,1.3,2.5,1*2F\r\n$GLGSA,A,3,67,68,69,77,78,87,88,,,,,,2.7,1.0,2.5,2*33\r\n$GPGSV,3,1,09,07,26,297,45,08,31,176,46,09,48,298,48,16,60,041,49,1*6A\r\n$GPGSV,3,2,09,23,66,225,50,27,54,133,51,46,41,204,00,48,20,242,00,1*67\r\n$GPGSV,3,3,09,51,36,216,00,,,,,,,,,,,,,1*59\r\n$GLGSV,2,1,07,67,22,211,44,68,41,273,44,69,18,327,37,77,48,045,43,1*7C\r\n$GLGSV,2,2,07,78,46,310,40,87,40,086,38,88,24,142,44,,,,,1*4B\r\n'
b'$GPRMC,203020.60,A,4006.8280450,N,08142.2893576,W,0.08,93.45,120317,0.0,E,D*19\r\n$GPGGA,203020.60,4006.8280450,N,08142.2893576,W,4,14,1.0,361.472,M,-34.312,M,0.6,*76\r\n'
b'$GPGSA,A,3,07,08,09,16,23,26,27,46,48,51,,,2.1,0.9,1.9,1*26\r\n$GLGSA,A,3,67,68,69,77,78,87,88,,,,,,2.7,1.0,2.5,2*33\r\n$GPGSV,3,1,10,07,26,297,45,08,31,176,46,09,48,298,48,16,60,041,49,1*62\r\n$GPGSV,3,2,10,23,66,225,50,26,32,054,35,27,54,133,51,46,41,204,00,1*67\r\n$GPGSV,3,3,10,48,20,242,00,51,36,216,00,,,,,,,,,1*6B\r\n$GLGSV,2,1,07,67,22,211,44,68,41,273,44,69,18,327,37,77,48,045,43,1*7C\r\n$GLGSV,2,2,07,78,46,310,40,87,40,086,38,88,24,142,44,,,,,1*4B\r\n'
b'$GPRMC,203020.80,A,4006.8280460,N,08142.2893564,W,0.11,93.45,120317,0.0,E,D*1F\r\n$GPGGA,203020.80,4006.8280460,N,08142.2893564,W,4,14,1.0,361.467,M,-34.312,M,0.8,*72\r\n'
b'$GPGSA,A,3,07,08,09,16,23,26,27,46,48,51,,,2.1,0.9,1.9,1*26\r\n$GLGSA,A,3,67,68,69,77,78,87,88,,,,,,2.7,1.0,2.5,2*33\r\n$GPGSV,3,1,10,07,26,297,45,08,31,176,46,09,48,298,47,16,60,041,49,1*6D\r\n$GPGSV,3,2,10,23,66,225,50,26,32,054,35,27,54,133,51,46,41,204,00,1*67\r\n$GPGSV,3,3,10,48,20,242,00,51,36,216,00,,,,,,,,,1*6B\r\n$GLGSV,2,1,07,67,22,211,44,68,41,273,44,69,18,327,37,77,48,045,43,1*7C\r\n$GLGSV,2,2,07,78,46,310,40,87,40,086,38,88,24,142,44,,,,,1*4B\r\n'
b'$GPRMC,203021.00,A,4006.8280461,N,08142.2893571,W,0.11,93.45,120317,0.0,E,D*13\r\n$GPGGA,203021.00,4006.8280461,N,08142.2893571,W,4,14,1.0,361.470,M,-34.312,M,1.0,*71\r\n'
b'$GPGSA,A,3,07,08,09,16,23,26,27,46,48,51,,,2.1,0.9,1.9,1*26\r\n$GLGSA,A,3,67,68,69,77,78,87,88,,,,,,2.7,1.0,2.5,2*33\r\n$GPGSV,3,1,10,07,26,297,45,08,31,176,46,09,48,298,47,16,60,041,49,1*6D\r\n$GPGSV,3,2,10,23,66,225,50,26,32,054,35,27,54,133,51,46,41,204,00,1*67\r\n$GPGSV,3,3,10,48,20,242,00,51,36,216,00,,,,,,,,,1*6B\r\n$GLGSV,2,1,07,67,22,211,44,68,41,273,44,69,18,327,37,77,48,045,43,1*7C\r\n$GLGSV,2,2,07,78,46,310,40,87,40,086,38,88,24,142,43,,,,,1*4C\r\n'
b'$GPRMC,203021.20,A,4006.8280452,N,08142.2893554,W,0.04,93.45,120317,0.0,E,D*12\r\n$GPGGA,203021.20,4006.8280452,N,08142.2893554,W,4,14,1.0,361.466,M,-34.312,M,0.2,*70\r\n'
b'$GPGSA,A,3,07,08,09,16,23,26,27,46,48,51,,,2.1,0.9,1.9,1*26\r\n$GLGSA,A,3,67,68,69,77,78,87,88,,,,,,2.7,1.0,2.5,2*33\r\n$GPGSV,3,1,10,07,26,297,45,08,31,176,45,09,48,298,47,16,60,041,49,1*6E\r\n$GPGSV,3,2,10,23,66,225,50,26,32,054,35,27,54,133,51,46,41,204,00,1*67\r\n$GPGSV,3,3,10,48,20,242,00,51,36,216,00,,,,,,,,,1*6B\r\n$GLGSV,2,1,07,67,22,211,44,68,41,273,44,69,18,327,37,77,48,045,43,1*7C\r\n$GLGSV,2,2,07,78,46,310,40,87,40,086,38,88,24,142,43,,,,,1*4C\r\n'
b'$GPRMC,203021.40,A,4006.8280451,N,08142.2893563,W,0.03,93.45,120317,0.0,E,D*14\r\n$GPGGA,203021.40,4006.8280451,N,08142.2893563,W,4,14,1.0,361.468,M,-34.312,M,0.4,*79\r\n'
b'$GPGSA,A,3,07,08,09,16,23,26,27,46,48,51,,,2.1,0.9,1.9,1*26\r\n$GLGSA,A,3,67,68,69,77,78,87,88,,,,,,2.7,1.0,2.5,2*33\r\n$GPGSV,3,1,10,07,26,297,45,08,31,176,45,09,48,298,47,16,60,041,49,1*6E\r\n$GPGSV,3,2,10,23,66,225,49,26,32,054,35,27,54,133,50,46,41,204,00,1*6E\r\n$GPGSV,3,3,10,48,20,242,00,51,36,216,00,,,,,,,,,1*6B\r\n$GLGSV,2,1,07,67,22,211,44,68,41,273,44,69,18,327,37,77,48,045,43,1*7C\r\n$GLGSV,2,2,07,78,46,310,40,87,40,086,38,88,24,142,43,,,,,1*4C\r\n'
b'$GPRMC,203021.60,A,4006.8280453,N,08142.2893560,W,0.04,93.45,120317,0.0,E,D*10\r\n$GPGGA,203021.60,4006.8280453,N,08142.2893560,W,4,14,1.0,361.468,M,-34.312,M,0.6,*78\r\n'
b'$GPGSA,A,3,07,08,09,16,23,26,27,46,48,51,,,2.1,0.9,1.9,1*26\r\n$GLGSA,A,3,67,68,69,77,78,87,88,,,,,,2.7,1.0,2.5,2*33\r\n$GPGSV,3,1,10,07,26,297,45,08,31,176,46,09,48,298,47,16,60,041,49,1*6D\r\n$GPGSV,3,2,10,23,66,225,50,26,32,054,35,27,54,133,51,46,41,204,00,1*67\r\n$GPGSV,3,3,10,48,20,242,00,51,36,216,00,,,,,,,,,1*6B\r\n$GLGSV,2,1,07,67,22,211,44,68,41,273,44,69,18,327,37,77,48,045,43,1*7C\r\n$GLGSV,2,2,07,78,46,310,40,87,40,086,38,88,24,142,43,,,,,1*4C\r\n'
b'$GPRMC,203021.80,A,4006.8280458,N,08142.2893560,W,0.09,93.45,120317,0.0,E,D*18\r\n$GPGGA,203021.80,4006.8280458,N,08142.2893560,W,4,14,1.0,361.468,M,-34.312,M,0.8,*73\r\n'
b'$GPGSA,A,3,07,08,09,16,23,26,27,46,48,51,,,2.1,0.9,1.9,1*26\r\n$GLGSA,A,3,67,68,69,77,78,87,88,,,,,,2.7,1.0,2.5,2*33\r\n$GPGSV,3,1,10,07,26,297,45,08,31,176,46,09,48,298,47,16,60,041,49,1*6D\r\n$GPGSV,3,2,10,23,66,225,50,26,31,054,35,27,54,133,51,46,41,204,00,1*64\r\n$GPGSV,3,3,10,48,20,242,00,51,36,216,00,,,,,,,,,1*6B\r\n$GLGSV,2,1,07,67,22,211,44,68,41,273,44,69,18,327,37,77,48,045,43,1*7C\r\n$GLGSV,2,2,07,78,46,310,40,87,40,086,37,88,24,142,43,,,,,1*43\r\n'
b'$GPRMC,203022.00,A,4006.8280450,N,08142.2893563,W,0.06,93.45,120317,0.0,E,D*17\r\n$GPGGA,203022.00,4006.8280450,N,08142.2893563,W,4,14,1.0,361.469,M,-34.312,M,1.0,*7B\r\n'
b'$GPGSA,A,3,07,08,09,16,23,26,27,46,48,51,,,2.1,0.9,1.9,1*26\r\n$GLGSA,A,3,67,68,69,77,78,87,88,,,,,,2.7,1.0,2.5,2*33\r\n$GPGSV,3,1,10,07,26,297,45,08,31,176,46,09,48,298,47,16,60,041,49,1*6D\r\n$GPGSV,3,2,10,23,66,225,50,26,31,054,35,27,54,133,51,46,41,204,00,1*64\r\n$GPGSV,3,3,10,48,20,242,00,51,36,216,00,,,,,,,,,1*6B\r\n$GLGSV,2,1,07,67,22,211,44,68,41,273,44,69,18,327,37,77,48,045,43,1*7C\r\n$GLGSV,2,2,07,78,46,310,40,87,40,086,37,88,24,142,43,,,,,1*43\r\n'
b'$GPRMC,203022.20,A,4006.8280448,N,08142.2893564,W,0.20,93.45,120317,0.0,E,D*1F\r\n$GPGGA,203022.20,4006.8280448,N,08142.2893564,W,4,14,1.0,361.466,M,-34.312,M,0.2,*7B\r\n'
b'$GPGSA,A,3,07,08,09,16,23,26,27,46,48,51,,,2.1,0.9,1.9,1*26\r\n$GLGSA,A,3,67,68,69,77,78,87,88,,,,,,2.7,1.0,2.5,2*33\r\n$GPGSV,3,1,10,07,26,297,45,08,31,176,46,09,48,298,47,16,60,041,49,1*6D\r\n$GPGSV,3,2,10,23,66,225,50,26,31,054,35,27,54,133,51,46,41,204,00,1*64\r\n$GPGSV,3,3,10,48,20,242,00,51,36,216,00,,,,,,,,,1*6B\r\n$GLGSV,2,1,07,67,22,211,44,68,41,273,44,69,18,327,37,77,48,045,43,1*7C\r\n$GLGSV,2,2,07,78,46,310,40,87,40,086,37,88,24,142,43,,,,,1*43\r\n'
b'$GPRMC,203022.40,A,4006.8280461,N,08142.2893546,W,0.04,93.45,120317,0.0,E,D*14\r\n$GPGGA,203022.40,4006.8280461,N,08142.2893546,W,4,14,1.0,361.460,M,-34.312,M,0.4,*76\r\n'
b'$GPGSA,A,3,07,08,09,16,23,26,27,46,48,51,,,2.1,0.9,1.9,1*26\r\n$GLGSA,A,3,67,68,69,77,78,87,88,,,,,,2.7,1.0,2.5,2*33\r\n$GPGSV,3,1,10,07,26,297,45,08,31,176,46,09,48,298,47,16,60,041,49,1*6D\r\n$GPGSV,3,2,10,23,66,225,50,26,31,054,35,27,54,133,51,46,41,204,00,1*64\r\n$GPGSV,3,3,10,48,20,242,00,51,36,216,00,,,,,,,,,1*6B\r\n$GLGSV,2,1,07,67,22,211,44,68,41,273,44,69,18,327,37,77,48,045,43,1*7C\r\n$GLGSV,2,2,07,78,46,310,40,87,40,086,37,88,24,142,43,,,,,1*43\r\n'
b'$GPRMC,203022.60,A,4006.8280454,N,08142.2893550,W,0.05,93.45,120317,0.0,E,D*16\r\n$GPGGA,203022.60,4006.8280454,N,08142.2893550,W,4,14,1.0,361.461,M,-34.312,M,0.6,*76\r\n'
b'$GPGSA,A,3,07,08,09,16,23,26,27,46,48,51,,,2.1,0.9,1.9,1*26\r\n$GLGSA,A,3,67,68,69,77,78,87,88,,,,,,2.7,1.0,2.5,2*33\r\n$GPGSV,3,1,10,07,26,297,45,08,31,176,46,09,48,298,47,16,60,041,49,1*6D\r\n$GPGSV,3,2,10,23,66,225,50,26,31,054,35,27,54,133,51,46,41,204,00,1*64\r\n$GPGSV,3,3,10,48,20,242,00,51,36,216,00,,,,,,,,,1*6B\r\n$GLGSV,2,1,07,67,22,211,44,68,41,273,44,69,18,327,37,77,48,045,43,1*7C\r\n$GLGSV,2,2,07,78,46,310,40,87,40,086,37,88,24,142,43,,,,,1*43\r\n'
b'$GPRMC,203022.80,A,4006.8280454,N,08142.2893558,W,0.06,93.45,120317,0.0,E,D*13\r\n$GPGGA,203022.80,4006.8280454,N,08142.2893558,W,4,14,1.0,361.463,M,-34.312,M,0.8,*7C\r\n'
b'$GPGSA,A,3,07,08,09,16,23,26,27,46,48,51,,,2.1,0.9,1.9,1*26\r\n$GLGSA,A,3,67,68,69,77,78,87,88,,,,,,2.7,1.0,2.5,2*33\r\n$GPGSV,3,1,10,07,26,297,45,08,31,176,46,09,48,298,47,16,60,041,49,1*6D\r\n$GPGSV,3,2,10,23,66,225,50,26,31,054,35,27,54,133,51,46,41,204,00,1*64\r\n$GPGSV,3,3,10,48,20,242,00,51,36,216,00,,,,,,,,,1*6B\r\n$GLGSV,2,1,07,67,22,211,45,68,41,273,44,69,18,327,37,77,48,045,43,1*7D\r\n$GLGSV,2,2,07,78,46,310,40,87,40,086,37,88,24,142,43,,,,,1*43\r\n'
b'$GPRMC,203023.00,A,4006.8280450,N,08142.2893557,W,0.12,93.45,120317,0.0,E,D*14\r\n$GPGGA,203023.00,4006.8280450,N,08142.2893557,W,4,14,1.0,361.464,M,-34.312,M,1.0,*70\r\n'
b'$GPGSA,A,3,07,08,09,16,23,26,27,46,48,51,,,2.1,0.9,1.9,1*26\r\n$GLGSA,A,3,67,68,69,77,78,87,88,,,,,,2.7,1.0,2.5,2*33\r\n$GPGSV,3,1,10,07,26,297,45,08,31,176,46,09,48,298,48,16,60,041,49,1*62\r\n$GPGSV,3,2,10,23,66,225,50,26,31,054,35,27,54,133,51,46,41,204,00,1*64\r\n$GPGSV,3,3,10,48,20,242,00,51,36,216,00,,,,,,,,,1*6B\r\n$GLGSV,2,1,07,67,22,211,45,68,41,273,44,69,18,327,37,77,48,045,43,1*7D\r\n$GLGSV,2,2,07,78,46,310,40,87,40,086,37,88,24,142,43,,,,,1*43\r\n'
b'$GPRMC,203023.20,A,4006.8280444,N,08142.2893554,W,0.08,93.45,120317,0.0,E,D*1B\r\n$GPGGA,203023.20,4006.8280444,N,08142.2893554,W,4,14,1.0,361.464,M,-34.312,M,0.2,*77\r\n'
b'$GPGSA,A,3,07,08,09,16,23,26,27,46,48,51,,,2.1,0.9,1.9,1*26\r\n$GLGSA,A,3,67,68,69,77,78,87,88,,,,,,2.7,1.0,2.5,2*33\r\n$GPGSV,3,1,10,07,26,297,45,08,31,176,46,09,48,298,48,16,60,041,49,1*62\r\n$GPGSV,3,2,10,23,66,225,50,26,31,054,35,27,54,133,51,46,41,204,00,1*64\r\n$GPGSV,3,3,10,48,20,242,00,51,36,216,00,,,,,,,,,1*6B\r\n$GLGSV,2,1,07,67,22,211,45,68,41,273,44,69,18,327,37,77,48,045,43,1*7D\r\n$GLGSV,2,2,07,78,46,310,40,87,40,086,37,88,24,142,43,,,,,1*43\r\n'
b'$GPRMC,203023.40,A,4006.8280443,N,08142.2893555,W,0.05,93.45,120317,0.0,E,D*16\r\n$GPGGA,203023.40,4006.8280443,N,08142.2893555,W,4,14,1.0,361.465,M,-34.312,M,0.4,*70\r\n'
b'$GPGSA,A,3,07,08,09,16,23,26,27,46,48,51,,,2.1,0.9,1.9,1*26\r\n$GLGSA,A,3,67,68,69,77,78,87,88,,,,,,2.7,1.0,2.5,2*33\r\n$GPGSV,3,1,10,07,26,297,45,08,31,176,46,09,48,298,48,16,60,041,49,1*62\r\n$GPGSV,3,2,10,23,66,225,50,26,31,054,35,27,54,133,51,46,41,204,00,1*64\r\n$GPGSV,3,3,10,48,20,242,00,51,36,216,00,,,,,,,,,1*6B\r\n$GLGSV,2,1,07,67,22,211,45,68,41,273,44,69,18,327,37,77,48,045,43,1*7D\r\n$GLGSV,2,2,07,78,46,311,40,87,40,086,37,88,24,142,43,,,,,1*42\r\n'
b'$GPRMC,203023.60,A,4006.8280443,N,08142.2893558,W,0.09,93.45,120317,0.0,E,D*15\r\n$GPGGA,203023.60,4006.8280443,N,08142.2893558,W,4,14,1.0,361.463,M,-34.312,M,0.6,*7B\r\n'
b'$GPGSA,A,3,07,08,09,16,23,26,27,46,48,51,,,2.1,0.9,1.9,1*26\r\n$GLGSA,A,3,67,68,69,77,78,87,88,,,,,,2.7,1.0,2.5,2*33\r\n$GPGSV,3,1,10,07,26,297,45,08,31,176,46,09,48,298,48,16,60,041,49,1*62\r\n$GPGSV,3,2,10,23,66,225,50,26,31,054,35,27,54,133,51,46,41,204,00,1*64\r\n$GPGSV,3,3,10,48,20,242,00,51,36,216,00,,,,,,,,,1*6B\r\n$GLGSV,2,1,07,67,22,211,45,68,41,273,44,69,18,327,37,77,48,045,43,1*7D\r\n$GLGSV,2,2,07,78,46,311,40,87,40,086,37,88,24,142,43,,,,,1*42\r\n'
b'$GPRMC,203023.80,A,4006.8280437,N,08142.2893567,W,0.16,93.45,120317,0.0,E,D*1A\r\n$GPGGA,203023.80,4006.8280437,N,08142.2893567,W,4,14,1.0,361.469,M,-34.312,M,0.8,*7E\r\n'
b'$GPGSA,A,3,07,08,09,16,23,26,27,46,48,51,,,2.1,0.9,1.9,1*26\r\n$GLGSA,A,3,67,68,69,77,78,87,88,,,,,,2.7,1.0,2.5,2*33\r\n$GPGSV,3,1,10,07,26,297,45,08,31,176,46,09,48,298,47,16,60,041,49,1*6D\r\n$GPGSV,3,2,10,23,66,225,50,26,31,054,35,27,54,133,51,46,41,204,00,1*64\r\n$GPGSV,3,3,10,48,20,242,00,51,36,216,00,,,,,,,,,1*6B\r\n$GLGSV,2,1,07,67,22,211,45,68,41,273,44,69,18,327,37,77,48,045,43,1*7D\r\n$GLGSV,2,2,07,78,46,311,40,87,40,086,37,88,24,142,43,,,,,1*42\r\n'
b'$GPRMC,203024.00,A,4006.8280437,N,08142.2893557,W,0.10,93.45,120317,0.0,E,D*10\r\n$GPGGA,203024.00,4006.8280437,N,08142.2893557,W,4,14,1.0,361.466,M,-34.312,M,1.0,*74\r\n'
b'$GPGSA,A,3,07,08,09,16,23,26,27,46,48,51,,,2.1,0.9,1.9,1*26\r\n$GLGSA,A,3,67,68,69,77,78,87,88,,,,,,2.7,1.0,2.5,2*33\r\n$GPGSV,3,1,10,07,26,297,46,08,31,176,46,09,48,298,47,16,59,041,49,1*64\r\n$GPGSV,3,2,10,23,66,225,50,26,31,054,35,27,54,133,51,46,41,204,00,1*64\r\n$GPGSV,3,3,10,48,20,242,00,51,36,216,00,,,,,,,,,1*6B\r\n$GLGSV,2,1,07,67,22,211,45,68,41,273,44,69,18,327,37,77,48,045,43,1*7D\r\n$GLGSV,2,2,07,78,46,311,40,87,40,086,37,88,24,142,43,,,,,1*42\r\n'
b'$GPRMC,203024.20,A,4006.8280436,N,08142.2893562,W,0.10,93.45,120317,0.0,E,D*15\r\n$GPGGA,203024.20,4006.8280436,N,08142.2893562,W,4,14,1.0,361.472,M,-34.312,M,0.2,*77\r\n'
b'$GPGSA,A,3,07,08,09,16,23,26,27,46,48,51,,,2.1,0.9,1.9,1*26\r\n$GLGSA,A,3,67,68,69,77,78,87,88,,,,,,2.7,1.0,2.5,2*33\r\n$GPGSV,3,1,10,07,26,297,46,08,31,176,46,09,48,298,47,16,59,041,49,1*64\r\n$GPGSV,3,2,10,23,66,225,50,26,31,054,35,27,54,133,51,46,41,204,00,1*64\r\n$GPGSV,3,3,10,48,20,242,00,51,36,216,00,,,,,,,,,1*6B\r\n$GLGSV,2,1,07,67,22,211,45,68,41,273,44,69,18,327,37,77,48,045,43,1*7D\r\n$GLGSV,2,2,07,78,46,311,40,87,40,086,36,88,24,142,43,,,,,1*43\r\n'
b'$GPRMC,203024.40,A,4006.8280449,N,08142.2893545,W,0.11,93.45,120317,0.0,E,D*1F\r\n$GPGGA,203024.40,4006.8280449,N,08142.2893545,W,4,13,1.0,361.469,M,-34.312,M,0.4,*77\r\n'
b'$GPGSA,A,3,07,08,09,16,23,27,46,48,51,,,,2.8,1.3,2.5,1*2F\r\n$GLGSA,A,3,67,68,69,77,78,87,88,,,,,,2.7,1.0,2.6,2*30\r\n$GPGSV,3,1,09,07,26,297,45,08,31,176,46,09,48,298,47,16,59,041,49,1*6F\r\n$GPGSV,3,2,09,23,66,225,50,27,54,133,51,46,41,204,00,48,20,242,00,1*67\r\n$GPGSV,3,3,09,51,36,216,00,,,,,,,,,,,,,1*59\r\n$GLGSV,2,1,07,67,22,211,45,68,41,273,44,69,18,327,37,77,48,045,43,1*7D\r\n$GLGSV,2,2,07,78,46,311,40,87,40,086,36,88,24,142,43,,,,,1*43\r\n'
b'$GPRMC,203024.60,A,4006.8280450,N,08142.2893552,W,0.08,93.45,120317,0.0,E,D*1B\r\n$GPGGA,203024.60,4006.8280450,N,08142.2893552,W,4,13,1.0,361.467,M,-34.312,M,0.6,*77\r\n'
b'$GPGSA,A,3,07,08,09,16,23,27,46,48,51,,,,2.8,1.3,2.5,1*2F\r\n$GLGSA,A,3,67,68,69,77,78,87,88,,,,,,2.7,1.0,2.6,2*30\r\n$GPGSV,3,1,09,07,26,297,45,08,31,176,46,09,48,298,47,16,59,041,50,1*67\r\n$GPGSV,3,2,09,23,66,225,50,27,54,133,51,46,41,204,00,48,20,242,00,1*67\r\n$GPGSV,3,3,09,51,36,216,00,,,,,,,,,,,,,1*59\r\n$GLGSV,2,1,07,67,22,211,44,68,41,273,44,69,18,327,37,77,48,045,41,1*7E\r\n$GLGSV,2,2,07,78,46,311,40,87,40,086,36,88,24,142,43,,,,,1*43\r\n'
b'$GPRMC,203024.80,A,4006.8280437,N,08142.2893561,W,0.15,93.45,120317,0.0,E,D*18\r\n$GPGGA,203024.80,4006.8280437,N,08142.2893561,W,4,13,1.0,361.472,M,-34.312,M,0.8,*72\r\n'
b'$GPGSA,A,3,07,08,09,16,23,27,46,48,51,,,,2.8,1.3,2.5,1*2F\r\n$GLGSA,A,3,67,68,69,77,78,87,88,,,,,,2.7,1.0,2.6,2*30\r\n$GPGSV,3,1,09,07,26,297,45,08,31,176,46,09,48,298,47,16,59,041,49,1*6F\r\n$GPGSV,3,2,09,23,66,225,50,27,54,133,51,46,41,204,00,48,20,242,00,1*67\r\n$GPGSV,3,3,09,51,36,216,00,,,,,,,,,,,,,1*59\r\n$GLGSV,2,1,07,67,22,211,44,68,41,273,44,69,18,327,37,77,48,045,41,1*7E\r\n$GLGSV,2,2,07,78,46,311,40,87,40,086,36,88,24,142,43,,,,,1*43\r\n'
b'$GPRMC,203025.00,A,4006.8280440,N,08142.2893554,W,0.44,93.45,120317,0.0,E,D*13\r\n$GPGGA,203025.00,4006.8280440,N,08142.2893554,W,4,14,1.0,361.483,M,-34.312,M,1.0,*7D\r\n'
b'$GPGSA,A,3,07,08,09,16,23,26,27,46,48,51,,,2.1,0.9,1.9,1*26\r\n$GLGSA,A,3,67,68,69,77,78,87,88,,,,,,2.7,1.0,2.6,2*30\r\n$GPGSV,3,1,10,07,26,297,45,08,31,176,46,09,48,298,47,16,59,041,49,1*67\r\n$GPGSV,3,2,10,23,66,225,50,26,31,054,36,27,54,133,51,46,41,204,00,1*67\r\n$GPGSV,3,3,10,48,20,242,00,51,36,216,00,,,,,,,,,1*6B\r\n$GLGSV,2,1,07,67,22,211,44,68,41,273,44,69,18,327,37,77,48,045,41,1*7E\r\n$GLGSV,2,2,07,78,46,311,40,87,40,086,36,88,24,142,43,,,,,1*43\r\n'
b'$GPRMC,203025.20,A,4006.8280457,N,08142.2893533,W,0.20,93.45,120317,0.0,E,D*14\r\n$GPGGA,203025.20,4006.8280457,N,08142.2893533,W,4,14,1.0,361.459,M,-34.312,M,0.2,*7C\r\n'
b'$GPGSA,A,3,07,08,09,16,23,26,27,46,48,51,,,2.1,0.9,1.9,1*26\r\n$GLGSA,A,3,67,68,69,77,78,87,88,,,,,,2.7,1.0,2.6,2*30\r\n$GPGSV,3,1,10,07,26,297,44,08,31,176,46,09,48,298,47,16,59,041,49,1*66\r\n$GPGSV,3,2,10,23,66,225,49,26,31,054,36,27,54,133,51,46,41,204,00,1*6F\r\n$GPGSV,3,3,10,48,20,242,00,51,36,216,00,,,,,,,,,1*6B\r\n$GLGSV,2,1,07,67,22,211,45,68,41,273,44,69,18,327,37,77,48,045,41,1*7F\r\n$GLGSV,2,2,07,78,46,311,40,87,40,086,36,88,24,142,43,,,,,1*43\r\n'
b'$GPRMC,203025.40,A,4006.8280438,N,08142.2893551,W,0.51,93.45,120317,0.0,E,D*19\r\n$GPGGA,203025.40,4006.8280438,N,08142.2893551,W,4,14,1.0,361.481,M,-34.312,M,0.4,*74\r\n'
b'$GPGSA,A,3,07,08,09,16,23,26,27,46,48,51,,,2.1,0.9,1.9,1*26\r\n$GLGSA,A,3,67,68,69,77,78,87,88,,,,,,2.7,1.0,2.6,2*30\r\n$GPGSV,3,1,10,07,26,297,45,08,31,176,46,09,48,298,47,16,59,041,49,1*67\r\n$GPGSV,3,2,10,23,66,225,49,26,31,054,36,27,54,133,51,46,41,204,00,1*6F\r\n$GPGSV,3,3,10,48,20,242,00,51,36,216,00,,,,,,,,,1*6B\r\n$GLGSV,2,1,07,67,22,211,45,68,41,273,44,69,18,327,37,77,48,045,42,1*7C\r\n$GLGSV,2,2,07,78,46,311,40,87,40,086,37,88,24,142,43,,,,,1*42\r\n'
b'$GPRMC,203025.60,A,4006.8280442,N,08142.2893508,W,0.12,93.45,120317,0.0,E,D*1D\r\n$GPGGA,203025.60,4006.8280442,N,08142.2893508,W,4,13,1.0,361.468,M,-34.312,M,0.6,*75\r\n'
b'$GPGSA,A,3,07,08,09,16,23,26,27,46,48,51,,,2.1,0.9,1.9,1*26\r\n$GLGSA,A,3,67,68,69,77,78,88,,,,,,,2.8,1.1,2.6,2*31\r\n$GPGSV,3,1,10,07,26,297,45,08,31,176,45,09,48,298,47,16,59,041,50,1*6C\r\n$GPGSV,3,2,10,23,66,225,49,26,31,054,35,27,54,133,51,46,41,204,00,1*6C\r\n$GPGSV,3,3,10,48,20,242,00,51,36,216,00,,,,,,,,,1*6B\r\n$GLGSV,2,1,06,67,22,211,45,68,41,273,44,69,18,327,37,77,48,045,43,1*7C\r\n$GLGSV,2,2,06,78,46,311,41,88,24,142,43,,,,,,,,,1*73\r\n'
b'$GPRMC,203025.80,A,4006.8280434,N,08142.2893548,W,0.27,93.45,120317,0.0,E,D*10\r\n$GPGGA,203025.80,4006.8280434,N,08142.2893548,W,4,14,1.0,361.467,M,-34.312,M,0.8,*78\r\n'
b'$GPGSA,A,3,07,08,09,16,23,26,27,46,48,51,,,2.1,0.9,1.9,1*26\r\n$GLGSA,A,3,67,68,69,77,78,87,88,,,,,,2.7,1.0,2.6,2*30\r\n$GPGSV,3,1,10,07,26,297,45,08,31,176,45,09,48,298,47,16,59,041,50,1*6C\r\n$GPGSV,3,2,10,23,66,225,50,26,31,054,36,27,54,133,51,46,41,204,00,1*67\r\n$GPGSV,3,3,10,48,20,242,00,51,36,216,00,,,,,,,,,1*6B\r\n$GLGSV,2,1,07,67,22,211,44,68,41,273,44,69,19,327,37,77,48,045,44,1*7A\r\n$GLGSV,2,2,07,78,46,311,40,87,40,086,36,88,24,142,43,,,,,1*43\r\n'
b'$GPRMC,203026.00,A,4006.8280449,N,08142.2893529,W,0.39,93.45,120317,0.0,E,D*19\r\n$GPGGA,203026.00,4006.8280449,N,08142.2893529,W,4,13,1.0,361.461,M,-34.312,M,1.0,*76\r\n'
b'$GPGSA,A,3,07,08,09,16,23,26,27,46,48,51,,,2.1,0.9,1.9,1*26\r\n$GLGSA,A,3,67,68,77,78,87,88,,,,,,,24.5,6.7,23.5,2*39\r\n$GPGSV,3,1,10,07,26,297,46,08,31,176,46,09,48,298,47,16,59,041,49,1*64\r\n$GPGSV,3,2,10,23,66,225,49,26,31,054,35,27,54,133,51,46,41,204,00,1*6C\r\n$GPGSV,3,3,10,48,20,242,00,51,36,216,00,,,,,,,,,1*6B\r\n$GLGSV,2,1,06,67,22,211,44,68,41,273,44,77,48,045,42,78,46,311,42,1*70\r\n$GLGSV,2,2,06,87,40,086,36,88,24,142,43,,,,,,,,,1*78\r\n'
b'$GPRMC,203026.20,A,4006.8280439,N,08142.2893583,W,0.49,93.45,120317,0.0,E,D*1B\r\n$GPGGA,203026.20,4006.8280439,N,08142.2893583,W,4,13,1.0,361.473,M,-34.312,M,0.2,*73\r\n'
b'$GPGSA,A,3,07,08,09,16,23,26,27,46,48,51,,,2.1,0.9,1.9,1*26\r\n$GLGSA,A,3,67,68,77,78,87,88,,,,,,,24.5,6.7,23.5,2*39\r\n$GPGSV,3,1,10,07,26,297,46,08,31,176,46,09,48,298,48,16,59,041,49,1*6B\r\n$GPGSV,3,2,10,23,66,225,50,26,31,054,36,27,54,133,51,46,41,204,00,1*67\r\n$GPGSV,3,3,10,48,20,242,00,51,36,216,00,,,,,,,,,1*6B\r\n$GLGSV,2,1,06,67,22,211,44,68,41,273,45,77,48,045,43,78,46,311,36,1*73\r\n$GLGSV,2,2,06,87,40,086,36,88,24,142,43,,,,,,,,,1*78\r\n'
b'$GPRMC,203026.40,A,4006.8280449,N,08142.2893592,W,0.03,93.45,120317,0.0,E,D*14\r\n$GPGGA,203026.40,4006.8280449,N,08142.2893592,W,4,12,1.0,361.465,M,-34.312,M,0.4,*72\r\n'
b'$GPGSA,A,3,07,08,09,16,23,26,27,46,48,51,,,2.1,0.9,1.9,1*26\r\n$GLGSA,A,3,67,68,77,87,88,,,,,,,,37.1,10.6,35.6,2*02\r\n$GPGSV,3,1,10,07,26,297,43,08,31,176,46,09,48,298,43,16,59,041,49,1*65\r\n$GPGSV,3,2,10,23,66,225,50,26,31,054,36,27,54,133,51,46,41,204,00,1*67\r\n$GPGSV,3,3,10,48,20,242,00,51,36,216,00,,,,,,,,,1*6B\r\n$GLGSV,2,1,05,67,22,211,44,68,41,273,44,77,48,045,42,87,40,086,36,1*7B\r\n$GLGSV,2,2,05,88,24,142,43,,,,,,,,,,,,,1*4B\r\n'
b'$GPRMC,203026.60,A,4006.8280398,N,08142.2893506,W,0.38,93.45,120317,0.0,E,D*18\r\n$GPGGA,203026.60,4006.8280398,N,08142.2893506,W,4,11,1.0,361.478,M,-34.312,M,0.6,*7B\r\n$GPGSA,A,3,07,08,16,23,26,27,46,48,51,,,,2.3,1.0,2.0,1*2F\r\n$GLGSA,A,3,67,68,77,87,88,,,,,,,,37.1,10.6,35.5,2*01\r\n$GPGSV,3,1,09,07,26,297,39,08,31,176,46,16,59,041,50,23,66,225,49,1*60\r\n$GPGSV,3,2,09,26,31,054,36,27,54,133,51,46,41,204,00,48,20,242,00,1*64\r\n$GPGSV,3,3,09,51,36,216,00,,,,,,,,,,,,,1*59\r\n$GLGSV,2,1,05,67,22,211,44,68,41,273,45,77,4'
b'8,045,42,87,40,086,36,1*7A\r\n$GLGSV,2,2,05,88,24,142,43,,,,,,,,,,,,,1*4B\r\n'
b'$GPRMC,203026.80,A,4006.8280397,N,08142.2893473,W,0.30,93.45,120317,0.0,E,D*12\r\n$GPGGA,203026.80,4006.8280397,N,08142.2893473,W,4,14,1.0,361.458,M,-34.312,M,0.8,*70\r\n'
b'$GPGSA,A,3,07,08,09,16,23,26,27,46,48,51,,,2.1,0.9,1.9,1*26\r\n$GLGSA,A,3,67,68,69,77,78,87,88,,,,,,2.7,1.0,2.6,2*30\r\n$GPGSV,3,1,10,07,26,297,40,08,31,176,45,09,48,298,42,16,59,041,50,1*6C\r\n$GPGSV,3,2,10,23,66,225,49,26,31,054,36,27,54,133,51,46,41,204,00,1*6F\r\n$GPGSV,3,3,10,48,20,242,00,51,36,216,00,,,,,,,,,1*6B\r\n$GLGSV,2,1,07,67,22,211,44,68,41,273,40,69,19,327,35,77,48,045,42,1*7A\r\n$GLGSV,2,2,07,78,46,311,36,87,40,086,36,88,24,142,43,,,,,1*42\r\n'
b'$GPRMC,203027.00,A,4006.8280438,N,08142.2893513,W,0.30,93.45,120317,0.0,E,D*1E\r\n$GPGGA,203027.00,4006.8280438,N,08142.2893513,W,4,13,1.0,361.442,M,-34.312,M,1.0,*79\r\n'
b'$GPGSA,A,3,08,09,16,23,26,27,46,48,51,,,,2.3,1.1,2.0,1*20\r\n$GLGSA,A,3,67,68,69,77,78,87,88,,,,,,2.7,1.0,2.6,2*30\r\n$GPGSV,3,1,09,08,31,176,46,09,48,298,40,16,59,041,49,23,66,225,49,1*6F\r\n$GPGSV,3,2,09,26,31,054,36,27,54,133,51,46,41,204,00,48,20,242,00,1*64\r\n$GPGSV,3,3,09,51,36,216,00,,,,,,,,,,,,,1*59\r\n$GLGSV,2,1,07,67,22,211,43,68,41,273,40,69,19,327,35,77,48,045,42,1*7D\r\n$GLGSV,2,2,07,78,46,311,36,87,40,086,36,88,24,142,43,,,,,1*42\r\n'
b'$GPRMC,203027.20,A,4006.8280443,N,08142.2893520,W,0.07,93.45,120317,0.0,E,D*14\r\n$GPGGA,203027.20,4006.8280443,N,08142.2893520,W,4,14,1.0,361.441,M,-34.312,M,1.2,*71\r\n'
b'$GPGSA,A,3,07,08,09,16,23,26,27,46,48,51,,,2.1,0.9,1.9,1*26\r\n$GLGSA,A,3,67,68,69,77,78,87,88,,,,,,2.7,1.0,2.6,2*30\r\n$GPGSV,3,1,10,07,26,297,36,08,31,176,46,09,48,298,39,16,59,041,48,1*6B\r\n$GPGSV,3,2,10,23,66,225,49,26,31,054,36,27,54,133,51,46,41,204,00,1*6F\r\n$GPGSV,3,3,10,48,20,242,00,51,36,216,00,,,,,,,,,1*6B\r\n$GLGSV,2,1,07,67,22,211,43,68,41,273,41,69,19,327,35,77,48,045,43,1*7D\r\n$GLGSV,2,2,07,78,46,311,36,87,40,086,36,88,24,142,43,,,,,1*42\r\n'
b'$GPRMC,203027.40,A,4006.8280456,N,08142.2893516,W,0.26,93.45,120317,0.0,E,D*10\r\n$GPGGA,203027.40,4006.8280456,N,08142.2893516,W,4,14,1.0,361.434,M,-34.312,M,0.4,*73\r\n'
b'$GPGSA,A,3,07,08,09,16,23,26,27,46,48,51,,,2.1,0.9,1.9,1*26\r\n$GLGSA,A,3,67,68,69,77,78,87,88,,,,,,2.7,1.0,2.6,2*30\r\n$GPGSV,3,1,10,07,26,297,36,08,31,176,45,09,48,298,40,16,59,041,48,1*66\r\n$GPGSV,3,2,10,23,66,225,49,26,31,054,35,27,54,133,51,46,41,204,00,1*6C\r\n$GPGSV,3,3,10,48,20,242,00,51,36,216,00,,,,,,,,,1*6B\r\n$GLGSV,2,1,07,67,22,211,43,68,41,273,41,69,19,327,35,77,48,045,43,1*7D\r\n$GLGSV,2,2,07,78,46,311,36,87,40,086,36,88,24,142,43,,,,,1*42\r\n'
b'$GPRMC,203027.60,A,4006.8280458,N,08142.2893502,W,0.12,93.45,120317,0.0,E,D*1E\r\n$GPGGA,203027.60,4006.8280458,N,08142.2893502,W,4,13,1.0,361.432,M,-34.312,M,0.6,*79\r\n'
b'$GPGSA,A,3,08,09,16,23,26,27,46,48,51,,,,2.3,1.1,2.0,1*20\r\n$GLGSA,A,3,67,68,69,77,78,87,88,,,,,,2.7,1.0,2.6,2*30\r\n$GPGSV,3,1,09,08,31,176,45,09,48,298,40,16,59,041,48,23,66,225,49,1*6D\r\n$GPGSV,3,2,09,26,31,054,35,27,54,133,51,46,41,204,00,48,20,242,00,1*67\r\n$GPGSV,3,3,09,51,36,216,00,,,,,,,,,,,,,1*59\r\n$GLGSV,2,1,07,67,22,211,44,68,41,273,41,69,19,327,35,77,48,045,43,1*7A\r\n$GLGSV,2,2,07,78,46,311,36,87,40,086,36,88,24,142,43,,,,,1*42\r\n'
b'$GPRMC,203027.80,A,4006.8280445,N,08142.2893494,W,0.03,93.45,120317,0.0,E,D*12\r\n$GPGGA,203027.80,4006.8280445,N,08142.2893494,W,4,13,1.0,361.437,M,-34.312,M,0.8,*7E\r\n'
b'$GPGSA,A,3,08,09,16,23,26,27,46,48,51,,,,2.3,1.1,2.0,1*20\r\n$GLGSA,A,3,67,68,69,77,78,87,88,,,,,,2.7,1.0,2.6,2*30\r\n$GPGSV,3,1,09,08,31,176,45,09,48,298,40,16,59,041,48,23,66,225,49,1*6D\r\n$GPGSV,3,2,09,26,31,054,35,27,54,133,51,46,41,204,00,48,20,242,00,1*67\r\n$GPGSV,3,3,09,51,36,216,00,,,,,,,,,,,,,1*59\r\n$GLGSV,2,1,07,67,22,211,44,68,41,273,41,69,19,327,37,77,48,045,43,1*78\r\n$GLGSV,2,2,07,78,46,311,36,87,40,086,36,88,24,142,43,,,,,1*42\r\n'
b'$GPRMC,203028.00,A,4006.8280427,N,08142.2893476,W,0.14,93.45,120317,0.0,E,D*1B\r\n$GPGGA,203028.00,4006.8280427,N,08142.2893476,W,4,13,1.0,361.447,M,-34.312,M,1.0,*7F\r\n'
b'$GPGSA,A,3,08,09,16,23,26,27,46,48,51,,,,2.3,1.1,2.0,1*20\r\n$GLGSA,A,3,67,68,69,77,78,87,88,,,,,,2.7,1.0,2.6,2*30\r\n$GPGSV,3,1,09,08,31,176,45,09,48,298,40,16,59,041,48,23,66,225,49,1*6D\r\n$GPGSV,3,2,09,26,31,054,36,27,54,133,51,46,41,204,00,48,20,242,00,1*64\r\n$GPGSV,3,3,09,51,36,216,00,,,,,,,,,,,,,1*59\r\n$GLGSV,2,1,07,67,22,211,44,68,41,273,41,69,19,327,37,77,48,045,43,1*78\r\n$GLGSV,2,2,07,78,46,311,36,87,40,086,36,88,24,142,43,,,,,1*42\r\n'
b'$GPRMC,203028.20,A,4006.8280436,N,08142.2893464,W,0.17,93.45,120317,0.0,E,D*19\r\n$GPGGA,203028.20,4006.8280436,N,08142.2893464,W,4,13,1.0,361.442,M,-34.312,M,0.2,*78\r\n'
b'$GPGSA,A,3,08,09,16,23,26,27,46,48,51,,,,2.3,1.1,2.0,1*20\r\n$GLGSA,A,3,67,68,69,77,78,87,88,,,,,,2.7,1.0,2.6,2*30\r\n$GPGSV,3,1,09,08,31,176,45,09,48,298,40,16,59,041,48,23,66,225,49,1*6D\r\n$GPGSV,3,2,09,26,31,054,36,27,54,133,51,46,41,204,00,48,20,242,00,1*64\r\n$GPGSV,3,3,09,51,36,216,00,,,,,,,,,,,,,1*59\r\n$GLGSV,2,1,07,67,22,211,43,68,41,273,40,69,19,327,38,77,48,045,43,1*71\r\n$GLGSV,2,2,07,78,46,311,36,87,40,086,36,88,24,142,43,,,,,1*42\r\n'
b'$GPRMC,203028.40,A,4006.8280423,N,08142.2893435,W,0.14,93.45,120317,0.0,E,D*1C\r\n$GPGGA,203028.40,4006.8280423,N,08142.2893435,W,4,13,1.0,361.449,M,-34.312,M,0.4,*73\r\n'
b'$GPGSA,A,3,08,09,16,23,26,27,46,48,51,,,,2.3,1.1,2.0,1*20\r\n$GLGSA,A,3,67,68,69,77,78,87,88,,,,,,2.7,1.0,2.6,2*30\r\n$GPGSV,3,1,09,08,31,176,46,09,48,298,40,16,59,041,48,23,66,225,49,1*6E\r\n$GPGSV,3,2,09,26,31,054,36,27,54,133,51,46,41,204,00,48,20,242,00,1*64\r\n$GPGSV,3,3,09,51,36,216,00,,,,,,,,,,,,,1*59\r\n$GLGSV,2,1,07,67,22,211,43,68,41,273,40,69,19,327,38,77,48,045,43,1*71\r\n$GLGSV,2,2,07,78,46,311,36,87,40,086,36,88,24,142,43,,,,,1*42\r\n'
b'$GPRMC,203028.60,A,4006.8280449,N,08142.2893500,W,0.14,93.45,120317,0.0,E,D*15\r\n$GPGGA,203028.60,4006.8280449,N,08142.2893500,W,4,14,1.0,361.420,M,-34.312,M,0.6,*70\r\n$GPGSA,A,3,07,08,09,16,23,26,27,46,48,51,,,2.1,0.9,1.9,1*26\r\n$GLGSA,A,3,67,68,69,77,78,87,88,,,,,,2.7,1.0,2.6,2*30\r\n$GPGSV,3,1,10,07,26,297,36,08,31,176,46,09,48,298,40,16,59,041,48,1*65\r\n$GPGSV,3,2,10,23,66,225,49,26,31,054,36,27,54,133,51,46,41,204,00,1*6F\r\n$GPGSV,3,3,10,48,20,242,00,51,36,216,00,,,,,,,,,1*6B\r\n$GLGSV,2,1,07,67,22,211,43,68,41'
b',273,40,69,19,327,38,77,48,045,43,1*71\r\n$GLGSV,2,2,07,78,46,311,36,87,40,086,36,88,24,142,43,,,,,1*42\r\n'
b'$GPRMC,203028.80,A,4006.8280435,N,08142.2893485,W,0.06,93.45,120317,0.0,E,D*1F\r\n$GPGGA,203028.80,4006.8280435,N,08142.2893485,W,4,14,1.0,361.428,M,-34.312,M,0.8,*7F\r\n'
b'$GPGSA,A,3,07,08,09,16,23,26,27,46,48,51,,,2.1,0.9,1.9,1*26\r\n$GLGSA,A,3,67,68,69,77,78,87,88,,,,,,2.7,1.0,2.6,2*30\r\n$GPGSV,3,1,10,07,26,297,38,08,31,176,46,09,48,298,40,16,59,041,48,1*6B\r\n$GPGSV,3,2,10,23,66,225,50,26,31,054,35,27,54,133,51,46,41,204,00,1*64\r\n$GPGSV,3,3,10,48,20,242,00,51,36,216,00,,,,,,,,,1*6B\r\n$GLGSV,2,1,07,67,22,211,43,68,41,273,38,69,19,327,38,77,48,045,44,1*79\r\n$GLGSV,2,2,07,78,46,311,36,87,40,086,36,88,24,142,43,,,,,1*42\r\n'
b'$GPRMC,203029.00,A,4006.8280414,N,08142.2893473,W,0.19,93.45,120317,0.0,E,D*12\r\n$GPGGA,203029.00,4006.8280414,N,08142.2893473,W,4,14,1.0,361.440,M,-34.312,M,1.0,*7B\r\n'
b'$GPGSA,A,3,07,08,09,16,23,26,27,46,48,51,,,2.1,0.9,1.9,1*26\r\n$GLGSA,A,3,67,68,69,77,78,87,88,,,,,,2.7,1.0,2.6,2*30\r\n$GPGSV,3,1,10,07,26,297,39,08,31,176,45,09,48,298,40,16,59,041,48,1*69\r\n$GPGSV,3,2,10,23,66,225,50,26,31,054,36,27,54,133,51,46,41,204,00,1*67\r\n$GPGSV,3,3,10,48,20,242,00,51,36,216,00,,,,,,,,,1*6B\r\n$GLGSV,2,1,07,67,22,211,43,68,41,273,38,69,19,327,37,77,48,045,44,1*76\r\n$GLGSV,2,2,07,78,46,311,36,87,40,086,36,88,24,142,43,,,,,1*42\r\n'
b'$GPRMC,203029.20,A,4006.8280427,N,08142.2893494,W,0.22,93.45,120317,0.0,E,D*11\r\n$GPGGA,203029.20,4006.8280427,N,08142.2893494,W,4,14,1.0,361.442,M,-34.312,M,0.2,*71\r\n'
b'$GPGSA,A,3,07,08,09,16,23,26,27,46,48,51,,,2.1,0.9,1.9,1*26\r\n$GLGSA,A,3,67,68,69,77,78,87,88,,,,,,2.7,1.0,2.6,2*30\r\n$GPGSV,3,1,10,07,26,297,39,08,31,176,45,09,48,298,40,16,59,041,48,1*69\r\n$GPGSV,3,2,10,23,66,225,50,26,31,054,36,27,54,133,51,46,41,204,00,1*67\r\n$GPGSV,3,3,10,48,20,242,00,51,36,216,00,,,,,,,,,1*6B\r\n$GLGSV,2,1,07,67,22,211,43,68,41,273,38,69,19,327,37,77,48,045,43,1*71\r\n$GLGSV,2,2,07,78,46,311,35,87,40,086,36,88,24,142,43,,,,,1*41\r\n'
b'$GPRMC,203029.40,A,4006.8280431,N,08142.2893509,W,0.05,93.45,120317,0.0,E,D*10\r\n$GPGGA,203029.40,4006.8280431,N,08142.2893509,W,4,14,1.0,361.439,M,-34.312,M,0.4,*7F\r\n'
b'$GPGSA,A,3,07,08,09,16,23,26,27,46,48,51,,,2.1,0.9,1.9,1*26\r\n$GLGSA,A,3,67,68,69,77,78,87,88,,,,,,2.7,1.0,2.6,2*30\r\n$GPGSV,3,1,10,07,26,297,37,08,31,176,46,09,48,298,40,16,59,041,49,1*65\r\n$GPGSV,3,2,10,23,66,225,50,26,31,054,36,27,54,133,51,46,41,204,00,1*67\r\n$GPGSV,3,3,10,48,20,242,00,51,36,216,00,,,,,,,,,1*6B\r\n$GLGSV,2,1,07,67,22,211,43,68,41,273,37,69,19,327,37,77,48,045,43,1*7E\r\n$GLGSV,2,2,07,78,46,311,35,87,40,086,36,88,24,142,41,,,,,1*43\r\n'
b'$GPRMC,203029.60,A,4006.8280407,N,08142.2893469,W,0.33,93.45,120317,0.0,E,D*15\r\n$GPGGA,203029.60,4006.8280407,N,08142.2893469,W,4,13,1.0,361.446,M,-34.312,M,0.6,*72\r\n'
b'$GPGSA,A,3,08,09,16,23,26,27,46,48,51,,,,2.3,1.1,2.0,1*20\r\n$GLGSA,A,3,67,68,69,77,78,87,88,,,,,,2.7,1.0,2.6,2*30\r\n$GPGSV,3,1,09,08,31,176,46,09,48,298,40,16,59,041,49,23,66,225,50,1*67\r\n$GPGSV,3,2,09,26,31,054,35,27,54,133,51,46,41,204,00,48,20,242,00,1*67\r\n$GPGSV,3,3,09,51,36,216,00,,,,,,,,,,,,,1*59\r\n$GLGSV,2,1,07,67,22,211,43,68,41,273,35,69,19,327,35,77,48,045,43,1*7E\r\n$GLGSV,2,2,07,78,46,311,35,87,40,086,36,88,24,142,42,,,,,1*40\r\n'
b'$GPRMC,203029.80,A,4006.8280402,N,08142.2893472,W,0.18,93.45,120317,0.0,E,D*1D\r\n$GPGGA,203029.80,4006.8280402,N,08142.2893472,W,4,13,1.0,361.453,M,-34.312,M,0.8,*79\r\n'
b'$GPGSA,A,3,08,09,16,23,26,27,46,48,51,,,,2.3,1.1,2.0,1*20\r\n$GLGSA,A,3,67,68,69,77,78,87,88,,,,,,2.7,1.0,2.6,2*30\r\n$GPGSV,3,1,09,08,31,176,46,09,48,298,39,16,59,041,49,23,66,225,50,1*69\r\n$GPGSV,3,2,09,26,31,054,35,27,54,133,51,46,41,204,00,48,20,242,00,1*67\r\n$GPGSV,3,3,09,51,36,216,00,,,,,,,,,,,,,1*59\r\n$GLGSV,2,1,07,67,22,211,44,68,41,273,36,69,19,327,35,77,48,045,44,1*7D\r\n$GLGSV,2,2,07,78,46,311,35,87,40,086,36,88,24,142,42,,,,,1*40\r\n'
b'$GPRMC,203030.00,A,4006.8280394,N,08142.2893444,W,2.18,314.07,120317,0.0,E,D*28\r\n$GPGGA,203030.00,4006.8280394,N,08142.2893444,W,4,12,1.0,361.532,M,-34.312,M,1.0,*7A\r\n'
